,Facility Name,City,country,ident,airport_ident,Lat,Long
0,Goroka Airport,Goroka,Papua New Guinea,GKA,AYGA,-6.081689834590001,145.391998291
1,Madang Airport,Madang,Papua New Guinea,MAG,AYMD,-5.20707988739,145.789001465
2,Mount Hagen Kagamuga Airport,Mount Hagen,Papua New Guinea,HGU,AYMH,-5.826789855957031,144.29600524902344
3,Nadzab Airport,Nadzab,Papua New Guinea,LAE,AYNZ,-6.569803,146.725977
4,Port Moresby Jacksons International Airport,Port Moresby,Papua New Guinea,POM,AYPY,-9.443380355834961,147.22000122070312
5,Wewak International Airport,Wewak,Papua New Guinea,WWK,AYWK,-3.5838301181800003,143.66900634799998
6,Narsarsuaq Airport,Narssarssuaq,Greenland,UAK,BGBW,61.1604995728,-45.4259986877
7,Godthaab / Nuuk Airport,Godthaab,Greenland,GOH,BGGH,64.19090271,-51.678100585900005
8,Kangerlussuaq Airport,Sondrestrom,Greenland,SFJ,BGSF,67.0122218992,-50.7116031647
9,Thule Air Base,Thule,Greenland,THU,BGTL,76.5311965942,-68.70320129390001
10,Akureyri Airport,Akureyri,Iceland,AEY,BIAR,65.66000366210939,-18.07270050048828
11,Egilsstaðir Airport,Egilsstadir,Iceland,EGS,BIEG,65.28330230712889,-14.401399612426758
12,Hornafjörður Airport,Hofn,Iceland,HFN,BIHN,64.295601,-15.2272
13,Húsavík Airport,Husavik,Iceland,HZK,BIHU,65.952301,-17.426001
14,Ísafjörður Airport,Isafjordur,Iceland,IFJ,BIIS,66.05809783935547,-23.13529968261719
15,Keflavik International Airport,Keflavik,Iceland,KEF,BIKF,63.985000610352,-22.605600357055998
16,Patreksfjörður Airport,Patreksfjordur,Iceland,PFJ,BIPA,65.555801,-23.965
17,Reykjavik Airport,Reykjavik,Iceland,RKV,BIRK,64.1299972534,-21.9405994415
18,Siglufjörður Airport,Siglufjordur,Iceland,SIJ,BISI,66.133301,-18.9167
19,Vestmannaeyjar Airport,Vestmannaeyjar,Iceland,VEY,BIVM,63.42430114746094,-20.27890014648437
20,Sault Ste Marie Airport,Sault Sainte Marie,Canada,YAM,CYAM,46.48500061035156,-84.5093994140625
21,Winnipeg / St. Andrews Airport,Winnipeg,Canada,YAV,CYAV,50.0564002991,-97.0325012207
22,Halifax / CFB Shearwater Heliport,Halifax,Canada,YAW,CYAW,44.639701843299996,-63.4994010925
23,St. Anthony Airport,St. Anthony,Canada,YAY,CYAY,51.391899108900006,-56.083099365200006
24,Tofino / Long Beach Airport,Tofino,Canada,YAZ,CYAZ,49.079833,-125.77558300000001
25,Kugaaruk Airport,Pelly Bay,Canada,YBB,CYBB,68.534401,-89.808098
26,Baie Comeau Airport,Baie Comeau,Canada,YBC,CYBC,49.13249969482422,-68.20439910888672
27,CFB Bagotville,Bagotville,Canada,YBG,CYBG,48.33060073852539,-70.99639892578125
28,Baker Lake Airport,Baker Lake,Canada,YBK,CYBK,64.29889678960001,-96.077796936
29,Campbell River Airport,Campbell River,Canada,YBL,CYBL,49.95080184936523,-125.27100372314452
30,Brandon Municipal Airport,Brandon,Canada,YBR,CYBR,49.91,-99.951897
31,Cambridge Bay Airport,Cambridge Bay,Canada,YCB,CYCB,69.1081008911,-105.13800048799999
32,Nanaimo Airport,Nanaimo,Canada,YCD,CYCD,49.054970224899996,-123.869862556
33,Castlegar/West Kootenay Regional Airport,Castlegar,Canada,YCG,CYCG,49.296398162799996,-117.63200378399999
34,Miramichi Airport,Chatham,Canada,YCH,CYCH,47.007801,-65.449203
35,Charlo Airport,Charlo,Canada,YCL,CYCL,47.990798999999996,-66.330299
36,Kugluktuk Airport,Coppermine,Canada,YCO,CYCO,67.81670379639999,-115.14399719200001
37,Coronation Airport,Coronation,Canada,YCT,CYCT,52.0750007629,-111.444999695
38,Chilliwack Airport,Chilliwack,Canada,YCW,CYCW,49.1528015137,-121.93900299100001
39,Clyde River Airport,Clyde River,Canada,YCY,CYCY,70.4860992432,-68.5167007446
40,Coral Harbour Airport,Coral Harbour,Canada,YZS,CYZS,64.1932983398,-83.3593978882
41,Dawson City Airport,Dawson,Canada,YDA,CYDA,64.04309844970703,-139.12800598144528
42,Burwash Airport,Burwash,Canada,YDB,CYDB,61.37110137939453,-139.04100036621094
43,Princeton Airport,Princeton,Canada,YDC,CYDC,49.468101501499994,-120.51100158700001
44,Deer Lake Airport,Deer Lake,Canada,YDF,CYDF,49.21080017089844,-57.39139938354492
45,Dease Lake Airport,Dease Lake,Canada,YDL,CYDL,58.4221992493,-130.031997681
46,Dauphin Barker Airport,Dauphin,Canada,YDN,CYDN,51.10079956054688,-100.052001953125
47,Dawson Creek Airport,Dawson Creek,Canada,YDQ,CYDQ,55.7422981262207,-120.18299865722656
48,Edmonton International Airport,Edmonton,Canada,YEG,CYEG,53.309700012200004,-113.580001831
49,Arviat Airport,Eskimo Point,Canada,YEK,CYEK,61.0942001343,-94.0708007812
50,Estevan Airport,Estevan,Canada,YEN,CYEN,49.210300445600005,-102.96600341799999
51,Edson Airport,Edson,Canada,YET,CYET,53.5788993835,-116.46499633799999
52,Eureka Airport,Eureka,Canada,YEU,CYEU,79.9946975708,-85.814201355
53,Inuvik Mike Zubko Airport,Inuvik,Canada,YEV,CYEV,68.30419921880001,-133.483001709
54,Iqaluit Airport,Iqaluit,Canada,YFB,CYFB,63.756401061999995,-68.5558013916
55,Fredericton Airport,Fredericton,Canada,YFC,CYFC,45.86890029907226,-66.53720092773439
56,Forestville Airport,Forestville,Canada,\N,CYFE,48.74610137939453,-69.09719848632811
57,Flin Flon Airport,Flin Flon,Canada,YFO,CYFO,54.6781005859375,-101.68199920654295
58,Fort Resolution Airport,Fort Resolution,Canada,YFR,CYFR,61.1808013916,-113.690002441
59,Fort Simpson Airport,Fort Simpson,Canada,YFS,CYFS,61.76020050048828,-121.23699951171876
60,Kingston Norman Rogers Airport,Kingston,Canada,YGK,CYGK,44.22529983520508,-76.5969009399414
61,La Grande Rivière Airport,La Grande Riviere,Canada,YGL,CYGL,53.62530136108398,-77.7042007446289
62,Gaspé (Michel-Pouliot) Airport,Gaspe,Canada,YGP,CYGP,48.775299072299994,-64.4785995483
63,Geraldton Greenstone Regional Airport,Geraldton,Canada,YGQ,CYGQ,49.77830123901367,-86.93939971923828
64,Îles-de-la-Madeleine Airport,Iles De La Madeleine,Canada,YGR,CYGR,47.42470169067383,-61.778099060058594
65,Hudson Bay Airport,Hudson Bay,Canada,YHB,CYHB,52.8166999817,-102.31099700899999
66,Dryden Regional Airport,Dryden,Canada,YHD,CYHD,49.83169937133789,-92.74420166015624
67,Ulukhaktok Holman Airport,Holman Island,Canada,YHI,CYHI,70.76280212402344,-117.80599975585938
68,Gjoa Haven Airport,Gjoa Haven,Canada,YHK,CYHK,68.635597229,-95.8497009277
69,John C. Munro Hamilton International Airport,Hamilton,Canada,YHM,CYHM,43.173599243199995,-79.93499755859999
70,Montréal / Saint-Hubert Airport,Montreal,Canada,YHU,CYHU,45.5175018311,-73.4169006348
71,Hay River / Merlyn Carter Airport,Hay River,Canada,YHY,CYHY,60.8396987915,-115.782997131
72,Halifax / Stanfield International Airport,Halifax,Canada,YHZ,CYHZ,44.880798339799995,-63.508598327600005
73,Atikokan Municipal Airport,Atikokan,Canada,YIB,CYIB,48.7738990784,-91.6386032104
74,Pond Inlet Airport,Pond Inlet,Canada,YIO,CYIO,72.6832962036,-77.9666976929
75,St Jean Airport,St. Jean,Canada,YJN,CYJN,45.29439926147461,-73.28109741210938
76,Stephenville Airport,Stephenville,Canada,YJT,CYJT,48.5442008972168,-58.54999923706055
77,Kamloops Airport,Kamloops,Canada,YKA,CYKA,50.702201843299996,-120.444000244
78,Waterloo Airport,Waterloo,Canada,YKF,CYKF,43.4608001709,-80.3786010742
79,Schefferville Airport,Schefferville,Canada,YKL,CYKL,54.80530166625977,-66.8052978515625
80,Kindersley Airport,Kindersley,Canada,YKY,CYKY,51.5175018311,-109.180999756
81,Buttonville Municipal Airport,Toronto,Canada,YKZ,CYKZ,43.86220169067383,-79.37000274658203
82,Chapleau Airport,Chapleau,Canada,YLD,CYLD,47.81999969482422,-83.3467025756836
83,Meadow Lake Airport,Meadow Lake,Canada,YLJ,CYLJ,54.12530136108398,-108.52300262451172
84,Lloydminster Airport,Lloydminster,Canada,YLL,CYLL,53.30920028686523,-110.072998046875
85,Alert Airport,Alert,Canada,YLT,CYLT,82.51779937740001,-62.280601501499994
86,Kelowna International Airport,Kelowna,Canada,YLW,CYLW,49.9561004639,-119.377998352
87,Mayo Airport,Mayo,Canada,YMA,CYMA,63.61640167236328,-135.86799621582028
88,Moose Jaw Air Vice Marshal C. M. McEwen Airport,Moose Jaw,Canada,YMJ,CYMJ,50.330299377441406,-105.55899810791016
89,Fort McMurray Airport,Fort Mcmurray,Canada,YMM,CYMM,56.653301238999994,-111.22200012200001
90,Moosonee Airport,Moosonee,Canada,YMO,CYMO,51.291099548339844,-80.60780334472656
91,Maniwaki Airport,Maniwaki,Canada,YMW,CYMW,46.272800445600005,-75.9906005859
92,Montreal International (Mirabel) Airport,Montreal,Canada,YMX,CYMX,45.67950057979999,-74.0386962891
93,Natashquan Airport,Natashquan,Canada,YNA,CYNA,50.18999862670898,-61.78919982910156
94,Ottawa / Gatineau Airport,Gatineau,Canada,YND,CYND,45.5217018127,-75.5635986328
95,Matagami Airport,Matagami,Canada,YNM,CYNM,49.76169967651367,-77.80280303955078
96,Old Crow Airport,Old Crow,Canada,YOC,CYOC,67.57060241699219,-139.83900451660156
97,CFB Cold Lake,Cold Lake,Canada,YOD,CYOD,54.40499877929688,-110.27899932861328
98,High Level Airport,High Level,Canada,YOJ,CYOJ,58.62139892578125,-117.16500091552734
99,Ottawa Macdonald-Cartier International Airport,Ottawa,Canada,YOW,CYOW,45.3224983215332,-75.66919708251953
100,Prince Albert Glass Field,Prince Albert,Canada,YPA,CYPA,53.214199066199996,-105.672996521
101,Peace River Airport,Peace River,Canada,YPE,CYPE,56.22689819335938,-117.4469985961914
102,Southport Airport,Portage-la-prairie,Canada,YPG,CYPG,49.903099,-98.27381700000001
103,Pitt Meadows Airport,Pitt Meadows,Canada,\N,CYPK,49.21609878540039,-122.70999908447266
104,Pickle Lake Airport,Pickle Lake,Canada,YPL,CYPL,51.4463996887207,-90.21420288085938
105,Port Menier Airport,Port Menier,Canada,YPN,CYPN,49.83639907836914,-64.28859710693361
106,Peterborough Airport,Peterborough,Canada,YPQ,CYPQ,44.22999954223633,-78.36329650878906
107,Prince Rupert Airport,Prince Pupert,Canada,YPR,CYPR,54.2860984802,-130.445007324
108,Fort Chipewyan Airport,Fort Chipewyan,Canada,YPY,CYPY,58.7672004699707,-111.11699676513672
109,Muskoka Airport,Muskoka,Canada,YQA,CYQA,44.974700927734375,-79.30329895019531
110,Quebec Jean Lesage International Airport,Quebec,Canada,YQB,CYQB,46.7911,-71.393303
111,Red Deer Regional Airport,Red Deer Industrial,Canada,YQF,CYQF,52.18220138549805,-113.8939971923828
112,Windsor Airport,Windsor,Canada,YQG,CYQG,42.27560043334961,-82.95559692382812
113,Watson Lake Airport,Watson Lake,Canada,YQH,CYQH,60.11640167236328,-128.82200622558594
114,Kenora Airport,Kenora,Canada,YQK,CYQK,49.78829956054688,-94.36309814453124
115,Lethbridge County Airport,Lethbridge,Canada,YQL,CYQL,49.6302986145,-112.80000305200001
116,Greater Moncton International Airport,Moncton,Canada,YQM,CYQM,46.11220169067383,-64.67859649658203
117,Comox Airport,Comox,Canada,YQQ,CYQQ,49.71080017089844,-124.88700103759766
118,Regina International Airport,Regina,Canada,YQR,CYQR,50.43190002441406,-104.66600036621094
119,Thunder Bay Airport,Thunder Bay,Canada,YQT,CYQT,48.37189865112305,-89.32389831542969
120,Grande Prairie Airport,Grande Prairie,Canada,YQU,CYQU,55.1796989441,-118.885002136
121,Yorkton Municipal Airport,Yorkton,Canada,YQV,CYQV,51.26470184326172,-102.46199798583984
122,North Battleford Airport,North Battleford,Canada,YQW,CYQW,52.76919937133789,-108.24400329589844
123,Gander International Airport,Gander,Canada,YQX,CYQX,48.9369010925293,-54.56809997558594
124,Sydney / J.A. Douglas McCurdy Airport,Sydney,Canada,YQY,CYQY,46.1613998413,-60.047798156700004
125,Quesnel Airport,Quesnel,Canada,YQZ,CYQZ,53.026100158691406,-122.51000213623048
126,Resolute Bay Airport,Resolute,Canada,YRB,CYRB,74.71690368649999,-94.9693984985
127,Rivière-du-Loup Airport,Riviere Du Loup,Canada,YRI,CYRI,47.76440048217773,-69.58470153808594
128,Roberval Airport,Roberval,Canada,YRJ,CYRJ,48.52000045776367,-72.2656021118164
129,Rocky Mountain House Airport,Rocky Mountain House,Canada,YRM,CYRM,52.4296989441,-114.903999329
130,Rankin Inlet Airport,Rankin Inlet,Canada,YRT,CYRT,62.811401367200006,-92.1157989502
131,Sudbury Airport,Sudbury,Canada,YSB,CYSB,46.625,-80.79889678955078
132,Sherbrooke Airport,Sherbrooke,Canada,YSC,CYSC,45.4385986328125,-71.69139862060547
133,Saint John Airport,St. John,Canada,YSJ,CYSJ,45.31610107421875,-65.89029693603516
134,Fort Smith Airport,Fort Smith,Canada,YSM,CYSM,60.020301818847656,-111.96199798583984
135,Nanisivik Airport,Nanisivik,Canada,YSR,CYSR,72.982201,-84.613602
136,Summerside Airport,Summerside,Canada,YSU,CYSU,46.44060134887695,-63.83359909057617
137,Sachs Harbour (David Nasogaluak Jr. Saaryuaq) Airport,Sachs Harbour,Canada,YSY,CYSY,71.9938964844,-125.24299621600001
138,Cape Dorset Airport,Cape Dorset,Canada,YTE,CYTE,64.2300033569,-76.5267028809
139,Thompson Airport,Thompson,Canada,YTH,CYTH,55.80110168457031,-97.86419677734376
140,CFB Trenton,Trenton,Canada,YTR,CYTR,44.118900299072266,-77.5280990600586
141,Timmins/Victor M. Power,Timmins,Canada,YTS,CYTS,48.569698333699996,-81.376701355
142,Billy Bishop Toronto City Centre Airport,Toronto,Canada,YTZ,CYTZ,43.627499,-79.396202
143,Tuktoyaktuk Airport,Tuktoyaktuk,Canada,YUB,CYUB,69.43329620361328,-133.0260009765625
144,Montreal / Pierre Elliott Trudeau International Airport,Montreal,Canada,YUL,CYUL,45.4706001282,-73.7407989502
145,Repulse Bay Airport,Repulse Bay,Canada,YUT,CYUT,66.5214004517,-86.22470092770003
146,Hall Beach Airport,Hall Beach,Canada,YUX,CYUX,68.77610015869999,-81.2425
147,Rouyn Noranda Airport,Rouyn,Canada,YUY,CYUY,48.20610046386719,-78.83560180664062
148,La Ronge Airport,La Ronge,Canada,YVC,CYVC,55.1514015198,-105.262001038
149,Vermilion Airport,Vermillion,Canada,YVG,CYVG,53.355800628699996,-110.823997498
150,Qikiqtarjuaq Airport,Broughton Island,Canada,YVM,CYVM,67.5457992554,-64.03140258789999
151,Val-d'Or Airport,Val D'or,Canada,YVO,CYVO,48.0532989502,-77.7827987671
152,Kuujjuaq Airport,Quujjuaq,Canada,YVP,CYVP,58.09609985351562,-68.42690277099611
153,Norman Wells Airport,Norman Wells,Canada,YVQ,CYVQ,65.28160095214844,-126.7979965209961
154,Vancouver International Airport,Vancouver,Canada,YVR,CYVR,49.193901061999995,-123.183998108
155,Buffalo Narrows Airport,Buffalo Narrows,Canada,YVT,CYVT,55.8418998718,-108.41799926799999
156,Wiarton Airport,Wiarton,Canada,YVV,CYVV,44.7458,-81.107201
157,Petawawa Airport,Petawawa,Canada,YWA,CYWA,45.95220184326172,-77.31919860839844
158,Winnipeg / James Armstrong Richardson International Airport,Winnipeg,Canada,YWG,CYWG,49.909999847399995,-97.2398986816
159,Wabush Airport,Wabush,Canada,YWK,CYWK,52.92190170288086,-66.86440277099611
160,Williams Lake Airport,Williams Lake,Canada,YWL,CYWL,52.1831016541,-122.054000854
161,Wrigley Airport,Wrigley,Canada,YWY,CYWY,63.20940017700195,-123.43699645996094
162,Cranbrook/Canadian Rockies International Airport,Cranbrook,Canada,YXC,CYXC,49.610801696777,-115.78199768066001
163,Edmonton City Centre (Blatchford Field) Airport,Edmonton,Canada,YXD,CYXD,53.5724983215,-113.52100372299999
164,Saskatoon John G. Diefenbaker International Airport,Saskatoon,Canada,YXE,CYXE,52.170799255371094,-106.6999969482422
165,Medicine Hat Airport,Medicine Hat,Canada,YXH,CYXH,50.01890182495117,-110.72100067138672
166,Fort St John Airport,Fort Saint John,Canada,YXJ,CYXJ,56.23809814453125,-120.73999786376952
167,Sioux Lookout Airport,Sioux Lookout,Canada,YXL,CYXL,50.11389923095703,-91.9052963256836
168,Pangnirtung Airport,Pangnirtung,Canada,YXP,CYXP,66.1449966431,-65.71360015869999
169,Earlton (Timiskaming Regional) Airport,Earlton,Canada,YXR,CYXR,47.6974006546,-79.84734535220001
170,Prince George Airport,Prince George,Canada,YXS,CYXS,53.8894004822,-122.679000854
171,Northwest Regional Airport Terrace-Kitimat,Terrace,Canada,YXT,CYXT,54.468498,-128.576009
172,London Airport,London,Canada,YXU,CYXU,43.035599,-81.1539
173,Abbotsford Airport,Abbotsford,Canada,YXX,CYXX,49.02529907226562,-122.36100006103516
174,Whitehorse / Erik Nielsen International Airport,Whitehorse,Canada,YXY,CYXY,60.709598541300004,-135.067001343
175,North Bay Airport,North Bay,Canada,YYB,CYYB,46.36360168457031,-79.42279815673828
176,Calgary International Airport,Calgary,Canada,YYC,CYYC,51.113899231000005,-114.019996643
177,Smithers Airport,Smithers,Canada,YYD,CYYD,54.82469940185547,-127.18299865722656
178,Fort Nelson Airport,Fort Nelson,Canada,YYE,CYYE,58.8363990784,-122.59700012200001
179,Penticton Airport,Penticton,Canada,YYF,CYYF,49.46310043334961,-119.60199737548828
180,Charlottetown Airport,Charlottetown,Canada,YYG,CYYG,46.290000915527344,-63.12110137939453
181,Taloyoak Airport,Spence Bay,Canada,YYH,CYYH,69.5466995239,-93.57669830319999
182,Victoria International Airport,Victoria,Canada,YYJ,CYYJ,48.646900177,-123.426002502
183,Lynn Lake Airport,Lynn Lake,Canada,YYL,CYYL,56.86389923095703,-101.07599639892578
184,Swift Current Airport,Swift Current,Canada,YYN,CYYN,50.291900634799994,-107.691001892
185,Churchill Airport,Churchill,Canada,YYQ,CYYQ,58.73920059204102,-94.06500244140624
186,Goose Bay Airport,Goose Bay,Canada,YYR,CYYR,53.3191986084,-60.425800323500006
187,St. John's International Airport,St. John's,Canada,YYT,CYYT,47.618598938000005,-52.751899719200004
188,Kapuskasing Airport,Kapuskasing,Canada,YYU,CYYU,49.41389846801758,-82.46749877929688
189,Armstrong Airport,Armstrong,Canada,YYW,CYYW,50.29029846191406,-88.90969848632812
190,Mont Joli Airport,Mont Joli,Canada,YYY,CYYY,48.60860061645508,-68.20809936523439
191,Lester B. Pearson International Airport,Toronto,Canada,YYZ,CYYZ,43.6772003174,-79.63059997559999
192,Downsview Airport,Toronto,Canada,YZD,CYZD,43.74250030517578,-79.4655990600586
193,Gore Bay Manitoulin Airport,Gore Bay,Canada,YZE,CYZE,45.88529968261719,-82.56780242919922
194,Yellowknife Airport,Yellowknife,Canada,YZF,CYZF,62.46279907226562,-114.44000244140624
195,Slave Lake Airport,Slave Lake,Canada,YZH,CYZH,55.293098449700004,-114.777000427
196,Sandspit Airport,Sandspit,Canada,YZP,CYZP,53.25429916379999,-131.813995361
197,Chris Hadfield Airport,Sarnia,Canada,YZR,CYZR,42.9994010925293,-82.30889892578125
198,Port Hardy Airport,Port Hardy,Canada,YZT,CYZT,50.68059921264648,-127.36699676513672
199,Whitecourt Airport,Whitecourt,Canada,YZU,CYZU,54.14390182495117,-115.78700256347656
200,Sept-Îles Airport,Sept-iles,Canada,YZV,CYZV,50.22330093383789,-66.26560211181639
201,Teslin Airport,Teslin,Canada,YZW,CYZW,60.17279815673828,-132.74299621582028
202,CFB Greenwood,Greenwood,Canada,YZX,CYZX,44.98440170288086,-64.91690063476561
203,Faro Airport,Faro,Canada,ZFA,CZFA,62.20750045776367,-133.37600708007812
204,Fort Mcpherson Airport,Fort Mcpherson,Canada,ZFM,CZFM,67.40750122070311,-134.86099243164062
205,Blida Airport,Blida,Algeria,\N,DAAB,36.50360107421875,2.814169883728028
206,Bou Saada Airport,Bou Saada,Algeria,\N,DAAD,35.33250045776367,4.206389904022217
207,Soummam Airport,Bejaja,Algeria,BJA,DAAE,36.712001800500005,5.0699200630200005
208,Houari Boumediene Airport,Algier,Algeria,ALG,DAAG,36.691001892089844,3.215409994125366
209,Djanet Inedbirene Airport,Djanet,Algeria,DJG,DAAJ,24.292800903299998,9.45244026184
210,Boufarik Airport,Boufarik,Algeria,QFD,DAAK,36.545799,2.8761099999999997
211,Reggane Airport,Reggan,Algeria,\N,DAAN,26.710100173950195,0.2856470048427582
212,Illizi Takhamalt Airport,Illizi,Algeria,VVZ,DAAP,26.7234992981,8.62265014648
213,Ain Oussera Airport,Ain Oussera,Algeria,\N,DAAQ,35.52539825439453,2.8787100315093994
214,Aguenar – Hadj Bey Akhamok Airport,Tamanrasset,Algeria,TMR,DAAT,22.8115005493,5.45107984543
215,Jijel Ferhat Abbas Airport,Jijel,Algeria,GJL,DAAV,36.7951011658,5.873610019680001
216,Mecheria Airport,Mecheria,Algeria,\N,DAAY,33.535900116,-0.242353007197
217,Relizane Airport,Relizane,Algeria,\N,DAAZ,35.752201080322266,0.6262720227241516
218,Annaba Airport,Annaba,Algeria,AAE,DABB,36.82220077514648,7.8091697692871085
219,Mohamed Boudiaf International Airport,Constantine,Algeria,CZL,DABC,36.2760009765625,6.620389938354492
220,Cheikh Larbi Tébessi Airport,Tebessa,Algeria,TEE,DABS,35.4315986633,8.120719909670001
221,Hassi R'Mel Airport,Tilrempt,Algeria,HRM,DAFH,32.93040084838867,3.311539888381958
222,Bou Chekif Airport,Tiaret,Algeria,TID,DAOB,35.3410987854,1.4631500244100002
223,Bou Sfer Airport,Bou Sfer,Algeria,\N,DAOE,35.73540115356445,-0.8053889870643616
224,Tindouf Airport,Tindouf,Algeria,TIN,DAOF,27.700399398800002,-8.167099952700001
225,Ech Cheliff Airport,Ech-cheliff,Algeria,QAS,DAOI,36.212699890100005,1.33176994324
226,Tafaraoui Airport,Oran,Algeria,TAF,DAOL,35.54240036010742,-0.5322780013084412
227,Zenata – Messali El Hadj Airport,Tlemcen,Algeria,TLM,DAON,35.0167007446,-1.4500000476800001
228,Es Senia Airport,Oran,Algeria,ORN,DAOO,35.6239013672,-0.6211829781529999
229,Sidi Bel Abbes Airport,Sidi Bel Abbes,Algeria,\N,DAOS,35.1717987061,-0.593275010586
230,Ghriss Airport,Ghriss,Algeria,MUW,DAOV,35.207698822021484,0.14714199304580688
231,Touat Cheikh Sidi Mohamed Belkebir Airport,Adrar,Algeria,AZR,DAUA,27.83760070800781,-0.1864140033721924
232,Biskra Airport,Biskra,Algeria,BSK,DAUB,34.793300628699996,5.73823022842
233,El Golea Airport,El Golea,Algeria,ELG,DAUE,30.5713005065918,2.8595900535583496
234,Noumérat - Moufdi Zakaria Airport,Ghardaia,Algeria,GHA,DAUG,32.38410186767578,3.7941100597381587
235,Oued Irara Airport,Hassi Messaoud,Algeria,HME,DAUH,31.673000335700003,6.140439987180001
236,In Salah Airport,In Salah,Algeria,INZ,DAUI,27.2509994507,2.51202011108
237,Touggourt Sidi Madhi Airport,Touggourt,Algeria,TGR,DAUK,33.067798614501946,6.088669776916504
238,Laghouat Airport,Laghouat,Algeria,LOO,DAUL,33.764400482199996,2.92833995819
239,Timimoun Airport,Timimoun,Algeria,TMX,DAUT,29.237100601199998,0.276033014059
240,Ain el Beida Airport,Ouargla,Algeria,OGX,DAUU,31.917200088500977,5.412779808044434
241,In Aménas Airport,Zarzaitine,Algeria,IAM,DAUZ,28.0515003204,9.64291000366
242,Cadjehoun Airport,Cotonou,Benin,COO,DBBB,6.357230186462402,2.384350061416626
243,Ouagadougou Airport,Ouagadougou,Burkina Faso,OUA,DFFD,12.35319995880127,-1.5124200582504272
244,Bobo Dioulasso Airport,Bobo-dioulasso,Burkina Faso,BOY,DFOO,11.160099983215332,-4.33096981048584
245,Kotoka International Airport,Accra,Ghana,ACC,DGAA,5.605189800262451,-0.16678600013256073
246,Tamale Airport,Tamale,Ghana,TML,DGLE,9.55718994140625,-0.8632140159606934
247,Wa Airport,Wa,Ghana,\N,DGLW,10.0826997756958,-2.507689952850342
248,Sunyani Airport,Sunyani,Ghana,NYI,DGSN,7.361830234527588,-2.3287599086761475
249,Takoradi Airport,Takoradi,Ghana,TKD,DGTK,4.896059989929199,-1.7747600078582764
250,Port Bouet Airport,Abidjan,Cote d'Ivoire,ABJ,DIAP,5.261390209197998,-3.9262900352478023
251,Bouaké Airport,Bouake,Cote d'Ivoire,BYK,DIBK,7.738800048828125,-5.073669910430908
252,Daloa Airport,Daloa,Cote d'Ivoire,DJO,DIDL,6.7928099632263175,-6.473189830780028
253,Korhogo Airport,Korhogo,Cote d'Ivoire,HGO,DIKO,9.38718032837,-5.556660175319999
254,Man Airport,Man,Cote d'Ivoire,MJC,DIMN,7.2720699310302725,-7.58735990524292
255,San Pedro Airport,San Pedro,Cote d'Ivoire,SPY,DISP,4.746719837188722,-6.660820007324219
256,Yamoussoukro Airport,Yamoussoukro,Cote d'Ivoire,ASK,DIYO,6.9031701088,-5.36558008194
257,Nnamdi Azikiwe International Airport,Abuja,Nigeria,ABV,DNAA,9.006790161132812,7.263169765472412
258,Akure Airport,Akure,Nigeria,AKR,DNAK,7.246739864349365,5.3010101318359375
259,Benin Airport,Benin,Nigeria,BNI,DNBE,6.3169798851013175,5.599500179290772
260,Margaret Ekpo International Airport,Calabar,Nigeria,CBQ,DNCA,4.976019859313965,8.347200393676758
261,Akanu Ibiam International Airport,Enugu,Nigeria,ENU,DNEN,6.4742698669433585,7.561960220336914
262,Gusau Airport,Gusau,Nigeria,QUS,DNGU,12.17169952392578,6.6961097717285165
263,Ibadan Airport,Ibadan,Nigeria,IBA,DNIB,7.362460136413574,3.97832989692688
264,Ilorin International Airport,Ilorin,Nigeria,ILR,DNIL,8.440210342407228,4.493919849395752
265,Yakubu Gowon Airport,Jos,Nigeria,JOS,DNJO,9.639829635620117,8.869050025939941
266,Kaduna Airport,Kaduna,Nigeria,KAD,DNKA,10.696000099182127,7.320109844207764
267,Mallam Aminu International Airport,Kano,Nigeria,KAN,DNKN,12.047599792480467,8.524620056152344
268,Maiduguri International Airport,Maiduguri,Nigeria,MIU,DNMA,11.855299949645994,13.080900192260742
269,Makurdi Airport,Makurdi,Nigeria,MDI,DNMK,7.7038798332214355,8.613940238952638
270,Murtala Muhammed International Airport,Lagos,Nigeria,LOS,DNMM,6.5773701667785645,3.321160078048706
271,Minna Airport,Minna,Nigeria,MXJ,DNMN,9.652170181274414,6.462259769439697
272,Port Harcourt International Airport,Port Hartcourt,Nigeria,PHC,DNPO,5.0154900550842285,6.94959020614624
273,Sadiq Abubakar III International Airport,Sokoto,Nigeria,SKO,DNSO,12.916299819946287,5.207190036773682
274,Yola Airport,Yola,Nigeria,YOL,DNYO,9.257550239562988,12.430399894714355
275,Zaria Airport,Zaria,Nigeria,ZAR,DNZA,11.130200386047363,7.685810089111327
276,Maradi Airport,Maradi,Niger,MFQ,DRRM,13.5024995803833,7.1267499923706055
277,Diori Hamani International Airport,Niamey,Niger,NIM,DRRN,13.481499671936035,2.1836099624633794
278,Tahoua Airport,Tahoua,Niger,THZ,DRRT,14.875699996948242,5.265359878540039
279,Mano Dayak International Airport,Agadez,Niger,AJY,DRZA,16.965999603271484,8.000109672546388
280,Dirkou Airport,Dirkou,Niger,\N,DRZD,18.968700408935547,12.86870002746582
281,Diffa Airport,Diffa,Niger,\N,DRZF,13.372900009155273,12.626700401306152
282,Zinder Airport,Zinder,Niger,ZND,DRZR,13.779000282287598,8.983759880065918
283,Monastir Habib Bourguiba International Airport,Monastir,Tunisia,MIR,DTMB,35.75809860229492,10.75469970703125
284,Tunis Carthage International Airport,Tunis,Tunisia,TUN,DTTA,36.85100173950195,10.22719955444336
285,Sidi Ahmed Air Base,Bizerte,Tunisia,\N,DTTB,37.2453994751,9.791449546810002
286,Remada Air Base,Remada,Tunisia,\N,DTTD,32.306198120117195,10.382100105285645
287,Gafsa Ksar International Airport,Gafsa,Tunisia,GAF,DTTF,34.42200088500977,8.822500228881836
288,Gabès Matmata International Airport,Gabes,Tunisia,GAE,DTTG,33.87689971923828,10.103300094604492
289,Borj El Amri Airport,Bordj El Amri,Tunisia,\N,DTTI,36.72129821777344,9.94314956665039
290,Djerba Zarzis International Airport,Djerba,Tunisia,DJE,DTTJ,33.875,10.775500297546387
291,El Borma Airport,El Borma,Tunisia,EBM,DTTR,31.70429992675781,9.254619598388672
292,Sfax Thyna International Airport,Sfax,Tunisia,SFA,DTTX,34.71799850463867,10.690999984741213
293,Tozeur Nefta International Airport,Tozeur,Tunisia,TOE,DTTZ,33.939701080322266,8.110560417175293
294,Niamtougou International Airport,Niatougou,Togo,LRL,DXNG,9.767330169677734,1.0912499427795408
295,Lomé-Tokoin Airport,Lome,Togo,LFW,DXXX,6.165609836578369,1.2545100450515747
296,Antwerp International Airport (Deurne),Antwerp,Belgium,ANR,EBAW,51.189399719200004,4.46027994156
297,Beauvechain Air Base,Beauvechain,Belgium,\N,EBBE,50.75859832763672,4.768330097198486
298,Kleine Brogel Air Base,Kleine Brogel,Belgium,\N,EBBL,51.168301,5.47
299,Brussels Airport,Brussels,Belgium,BRU,EBBR,50.9014015198,4.48443984985
300,Jehonville Air Base,Bertrix,Belgium,\N,EBBX,49.8917007446289,5.223889827728272
301,Brussels South Charleroi Airport,Charleroi,Belgium,CRL,EBCI,50.4592018127,4.453820228580001
302,Chièvres Air Base,Chievres,Belgium,\N,EBCV,50.57580184936523,3.8310000896453857
303,Koksijde Air Base,Koksijde,Belgium,\N,EBFN,51.09030151367188,2.652780055999756
304,Florennes Air Base,Florennes,Belgium,\N,EBFS,50.2433013916,4.64583015442
305,Wevelgem Airport,Kortrijk-vevelgem,Belgium,QKT,EBKT,50.817199707,3.2047200202900004
306,Liège Airport,Liege,Belgium,LGG,EBLG,50.63740158081055,5.443220138549805
307,Ostend-Bruges International Airport,Ostend,Belgium,OST,EBOS,51.1988983154,2.8622200489
308,Zutendaal Air Base,Zutendaal,Belgium,\N,EBSL,50.9474983215332,5.590559959411621
309,Limburg Regional Airport,Sint-truiden,Belgium,\N,EBST,50.791900634799994,5.201670169830001
310,Saint Hubert Air Base,St.-hubert,Belgium,\N,EBSU,50.034400939941406,5.440810203552246
311,Ursel Air Base,Ursel,Belgium,\N,EBUL,51.14419937133789,3.475559949874878
312,Weelde Air Base,Weelde,Belgium,\N,EBWE,51.394798278808594,4.9601898193359375
313,Oostmalle Air Base,Zoersel,Belgium,\N,EBZR,51.264702,4.75333
314,Bautzen Airport,Bautzen,Germany,\N,EDAB,51.19361114501953,14.51972198486328
315,Altenburg-Nobitz Airport,Altenburg,Germany,AOC,EDAC,50.9819450378418,12.506388664245605
316,Dessau Airport,Dessau,Germany,\N,EDAD,51.83169354100001,12.1909618378
317,Eisenhüttenstadt Airport,Eisenhuettenstadt,Germany,\N,EDAE,52.195856,14.58753
318,Großenhain Airport,Suhl,Germany,\N,EDAK,51.30805587768555,13.555556297302244
319,Merseburg Airport,Muehlhausen,Germany,\N,EDAM,51.3630556,11.940833300000001
320,Halle-Oppin Airport,Halle,Germany,\N,EDAQ,51.552223,12.053889
321,Riesa-Göhlis Airport,Riesa,Germany,\N,EDAU,51.293609619099996,13.3561105728
322,Rechlin-Lärz Airport,Rechlin-laerz,Germany,\N,EDAX,53.306388855,12.7522220612
323,Strausberg Airport,Strausberg,Germany,\N,EDAY,52.5805549621582,13.916666984558105
324,Schönhagen Airport,Schoenhagen,Germany,\N,EDAZ,52.2036094666,13.1563892365
325,Barth Airport,Barth,Germany,BBH,EDBH,54.338253,12.710515
326,Jena-Schöngleina Airport,Jena,Germany,\N,EDBJ,50.91527938842773,11.714444160461426
327,Kyritz Airport,Kyritz,Germany,\N,EDBK,52.91888809204102,12.425277709960938
328,"Magdeburg \City\"" Airport""",Magdeburg,Germany,\N,EDBM,52.073612,11.626389
329,Rothenburg/Görlitz Airport,Rothenburg/ol,Germany,\N,EDBR,51.36333465576172,14.949999809265135
330,Anklam Airport,Anklam,Germany,\N,EDCA,53.83277893066406,13.66861057281494
331,Cottbus-Drewitz Airport,Cottbus,Germany,\N,EDCD,51.889441999999995,14.531944000000001
332,Kamenz Airport,Kamenz,Germany,\N,EDCM,51.29694366455078,14.1274995803833
333,Berlin-Schönefeld International Airport,Berlin,Germany,SXF,EDDB,52.38000106811499,13.522500038147
334,Dresden Airport,Dresden,Germany,DRS,EDDC,51.1328010559082,13.767200469970705
335,Erfurt Airport,Erfurt,Germany,ERF,EDDE,50.97980117797852,10.958100318908693
336,Frankfurt am Main International Airport,Frankfurt,Germany,FRA,EDDF,50.033333299999995,8.5705556
337,Münster Osnabrück Airport,Munster,Germany,FMO,EDDG,52.134601593,7.68483018875
338,Hamburg Airport,Hamburg,Germany,HAM,EDDH,53.630401611328004,9.988229751586902
339,Berlin-Tempelhof International Airport,Berlin,Germany,THF,EDDI,52.472999572753906,13.403900146484375
340,Cologne Bonn Airport,Cologne,Germany,CGN,EDDK,50.865898132299996,7.1427397728
341,Düsseldorf International Airport,Duesseldorf,Germany,DUS,EDDL,51.28950119018555,6.766779899597168
342,Munich International Airport,Munich,Germany,MUC,EDDM,48.353801727295,11.786100387572999
343,Nuremberg Airport,Nuernberg,Germany,NUE,EDDN,49.498699,11.078055599999999
344,Leipzig Halle Airport,Leipzig,Germany,LEJ,EDDP,51.423888899999994,12.236388900000001
345,Saarbrücken Airport,Saarbruecken,Germany,SCN,EDDR,49.2145996094,7.10950994492
346,Stuttgart Airport,Stuttgart,Germany,STR,EDDS,48.6898994446,9.22196006775
347,Berlin-Tegel International Airport,Berlin,Germany,TXL,EDDT,52.559700012200004,13.287699699400001
348,Hannover Airport,Hannover,Germany,HAJ,EDDV,52.461101532,9.68507957458
349,Bremen Airport,Bremen,Germany,BRE,EDDW,53.0475006104,8.78666973114
350,Frankfurt-Egelsbach Airport,Egelsbach,Germany,QEF,EDFE,49.959999084472656,8.645833015441895
351,Frankfurt-Hahn Airport,Hahn,Germany,HHN,EDFH,49.948699951200005,7.263889789579999
352,Mannheim-City Airport,Mannheim,Germany,MHG,EDFM,49.47305679321289,8.514166831970215
353,Allendorf/Eder Airport,Allendorf,Germany,\N,EDFQ,51.03499984741211,8.680832862854004
354,Worms Airport,Worms,Germany,\N,EDFV,49.606945,8.368333
355,Mainz-Finthen Airport,Mainz,Germany,\N,EDFZ,49.967499,8.147222
356,Eisenach-Kindel Airport,Eisenach,Germany,\N,EDGE,50.991603999999995,10.47973
357,Siegerland Airport,Siegerland,Germany,\N,EDGS,50.70769882202149,8.082969665527344
358,Hamburg-Finkenwerder Airport,Hamburg,Germany,XFW,EDHI,53.5352783203125,9.835556030273438
359,Kiel-Holtenau Airport,Kiel,Germany,KEL,EDHK,54.37944412231445,10.145277976989746
360,Lübeck Blankensee Airport,Luebeck,Germany,LBC,EDHL,53.805400848400005,10.7192001343
361,Flugplatz Dahlemer Binz,Dahlemer Binz,Germany,\N,EDKV,50.405555725,6.528889179199999
362,Meinerzhagen Airport,Meinerzhagen,Germany,\N,EDKZ,51.099998474121094,7.5999999046325675
363,Arnsberg-Menden Airport,Arnsberg,Germany,ZCA,EDLA,51.48389053344727,7.8983330726623535
364,Essen Mulheim Airport,Essen,Germany,ESS,EDLE,51.40230178833008,6.9373297691345215
365,Bielefeld Airport,Bielefeld,Germany,\N,EDLI,51.964721679700006,8.544444084170001
366,Mönchengladbach Airport,Moenchengladbach,Germany,MGL,EDLN,51.23027801513672,6.504444122314452
367,Paderborn Lippstadt Airport,Paderborn,Germany,PAD,EDLP,51.614101409899995,8.616319656369999
368,Stadtlohn-Vreden Airport,Stadtlohn,Germany,\N,EDLS,51.99583435058594,6.840556144714356
369,Dortmund Airport,Dortmund,Germany,DTM,EDLW,51.518299102799986,7.61223983765
370,Augsburg Airport,Augsburg,Germany,AGB,EDMA,48.425278000000006,10.931667
371,Biberach a.d. Riß Airport,Biberach,Germany,\N,EDMB,48.11111068725586,9.762778282165527
372,Eggenfelden Airport,Eggenfelden,Germany,\N,EDME,48.39611053466797,12.723610877990724
373,Mindelheim-Mattsies Airport,Mindelheim,Germany,\N,EDMN,48.1069450378418,10.524999618530273
374,Oberpfaffenhofen Airport,Oberpfaffenhofen,Germany,OBF,EDMO,48.08140182495117,11.283100128173828
375,Straubing Airport,Straubing,Germany,RBM,EDMS,48.90083312988281,12.516667366027832
376,Vilshofen Airport,Vilshofen,Germany,\N,EDMV,48.6349983215332,13.195555686950685
377,Leutkirch-Unterzeil Airport,Leutkirch,Germany,\N,EDNL,47.85889053344727,10.014166831970217
378,Friedrichshafen Airport,Friedrichshafen,Germany,FDH,EDNY,47.671298980699994,9.511489868160002
379,Schwerin Parchim Airport,Parchim,Germany,SZW,EDOP,53.426998,11.7834
380,Stendal-Borstel Airport,Stendal,Germany,ZSN,EDOV,52.62888717651367,11.818611145019533
381,Aalen-Heidenheim/Elchingen Airport,Aalen-heidenheim,Germany,\N,EDPA,48.77777862548828,10.264721870422363
382,Bayreuth Airport,Bayreuth,Germany,BYU,EDQD,49.98500061035156,11.640000343322756
383,Burg Feuerstein Airport,Burg Feuerstein,Germany,\N,EDQE,49.794166564940994,11.133610725402999
384,Hof-Plauen Airport,Hof,Germany,HOQ,EDQM,50.288612365722656,11.856389045715332
385,Haßfurt-Schweinfurt Airport,Hassfurt,Germany,\N,EDQT,50.0180549621582,10.529443740844727
386,Koblenz-Winningen Airport,Koblenz,Germany,ZNV,EDRK,50.32555770874024,7.528611183166504
387,Trier-Föhren Airport,Trier,Germany,ZQF,EDRT,49.86388778686523,6.7874999046325675
388,Speyer Airport,Speyer,Germany,ZQC,EDRY,49.30472183227539,8.451389312744139
389,Zweibrücken Airport,Zweibruecken,Germany,ZQW,EDRZ,49.20940017700195,7.400559902191162
390,Donaueschingen-Villingen Airport,Donaueschingen,Germany,ZQL,EDTD,47.97333145139999,8.52222156525
391,Freiburg i. Br. Airport,Freiburg,Germany,\N,EDTF,48.022777557400005,7.832499980930001
392,Mengen-Hohentengen Airport,Mengen,Germany,\N,EDTM,48.05389022827149,9.372777938842773
393,Adolf Würth Airport,Schwaebisch Hall,Germany,\N,EDTY,49.1183319092,9.783888816829998
394,Finsterwalde/Schacksdorf Airport,Soest,Germany,\N,EDUS,51.607498,13.743610999999998
395,Braunschweig Wolfsburg Airport,Braunschweig,Germany,BWE,EDVE,52.319199,10.5561
396,Kassel-Calden Airport,Kassel,Germany,KSF,EDVK,51.417273,9.384967
397,Hildesheim Airport,Hildesheim,Germany,\N,EDVM,52.18138885498047,9.946389198303224
398,Bremerhaven Airport,Bremerhaven,Germany,BRV,EDWB,53.50694300000001,8.572778
399,Emden Airport,Emden,Germany,EME,EDWE,53.39110946655274,7.227499961853027
400,Leer-Papenburg Airport,Leer,Germany,\N,EDWF,53.27194213867188,7.441667079925537
401,Wilhelmshaven-Mariensiel Airport,Wilhelmshaven,Germany,WVN,EDWI,53.502220153808594,8.05222225189209
402,Borkum Airport,Borkum,Germany,BMK,EDWR,53.596389770500004,6.70916700363
403,Norderney Airport,Norderney,Germany,NRD,EDWY,53.70694351196289,7.230000019073486
404,Flensburg-Schäferhaus Airport,Flensburg,Germany,FLF,EDXF,54.77333450317383,9.378889083862305
405,Rendsburg-Schachtholm Airport,Rendsburg,Germany,\N,EDXR,54.22000122070313,9.599444389343262
406,Westerland Sylt Airport,Westerland,Germany,GWT,EDXW,54.9132003784,8.34047031403
407,Ämari Air Base,Armari Air Force Base,Estonia,\N,EEEI,59.26029968261719,24.208499908447266
408,Kärdla Airport,Kardla,Estonia,KDL,EEKA,58.99079895019531,22.830699920654297
409,Kuressaare Airport,Kuressaare,Estonia,URE,EEKE,58.22990036010742,22.50950050354004
410,Pärnu Airport,Parnu,Estonia,EPU,EEPU,58.41899871826172,24.47279930114746
411,Lennart Meri Tallinn Airport,Tallinn-ulemiste International,Estonia,TLL,EETN,59.41329956049999,24.8327999115
412,Tartu Airport,Tartu,Estonia,TAY,EETU,58.30749893189999,26.6903991699
413,Enontekio Airport,Enontekio,Finland,ENF,EFET,68.36260223388699,23.424299240112
414,Eura Airport,Eura,Finland,\N,EFEU,61.1161003112793,22.201400756835934
415,Halli Airport,Halli,Finland,KEV,EFHA,61.856039,24.786686
416,Helsinki Malmi Airport,Helsinki,Finland,HEM,EFHF,60.254600524902344,25.04280090332031
417,Helsinki Vantaa Airport,Helsinki,Finland,HEL,EFHK,60.317199707031,24.963300704956
418,Hameenkyro Airport,Hameenkyro,Finland,\N,EFHM,61.68970108032226,23.073699951171875
419,Hanko Airport,Hanko,Finland,\N,EFHN,59.848899841308594,23.083599090576172
420,Hyvinkää Airfield,Hyvinkaa,Finland,HYV,EFHV,60.6543998718,24.881099700900002
421,Kiikala Airport,Kikala,Finland,\N,EFIK,60.4625015259,23.652500152600002
422,Immola Airport,Immola,Finland,\N,EFIM,61.24919891357422,28.90369987487793
423,Kitee Airport,Kitee,Finland,\N,EFIT,62.1661,30.073601
424,Ivalo Airport,Ivalo,Finland,IVL,EFIV,68.607299804688,27.405300140380998
425,Joensuu Airport,Joensuu,Finland,JOE,EFJO,62.662899017334006,29.607500076294
426,Jyvaskyla Airport,Jyvaskyla,Finland,JYV,EFJY,62.399501800537,25.678300857544
427,Kauhava Airport,Kauhava,Finland,KAU,EFKA,63.127102,23.051399
428,Kemi-Tornio Airport,Kemi,Finland,KEM,EFKE,65.778701782227,24.582099914551
429,Kajaani Airport,Kajaani,Finland,KAJ,EFKI,64.285499572754,27.692399978638
430,Kauhajoki Airport,Kauhajoki,Finland,\N,EFKJ,62.4625015259,22.3931007385
431,Kokkola-Pietarsaari Airport,Kruunupyy,Finland,KOK,EFKK,63.721199035645,23.143100738525
432,Kemijarvi Airport,Kemijarvi,Finland,\N,EFKM,66.712898,27.156799
433,Kuusamo Airport,Kuusamo,Finland,KAO,EFKS,65.98760223388699,29.239400863647
434,Kittilä Airport,Kittila,Finland,KTT,EFKT,67.700996398926,24.846799850464002
435,Kuopio Airport,Kuopio,Finland,KUO,EFKU,63.007099151611,27.797800064087
436,Lahti Vesivehmaa Airport,Vesivehmaa,Finland,\N,EFLA,61.144199,25.693501
437,Lappeenranta Airport,Lappeenranta,Finland,LPP,EFLP,61.044601,28.144743
438,Mariehamn Airport,Mariehamn,Finland,MHQ,EFMA,60.122200012207,19.898199081421
439,Menkijarvi Airport,Menkijarvi,Finland,\N,EFME,62.94670104980469,23.51889991760254
440,Mikkeli Airport,Mikkeli,Finland,MIK,EFMI,61.6866,27.201798999999998
441,Nummela Airport,Nummela,Finland,\N,EFNU,60.3339004517,24.2964000702
442,Oulu Airport,Oulu,Finland,OUL,EFOU,64.930099487305,25.354600906372
443,Piikajarvi Airport,Piikajarvi,Finland,\N,EFPI,61.24560165405274,22.19339942932129
444,Pori Airport,Pori,Finland,POR,EFPO,61.461700439453004,21.799999237061
445,Pudasjärvi Airport,Pudasjarvi,Finland,\N,EFPU,65.4021987915,26.9468994141
446,Pyhäsalmi Airport,Pyhasalmi,Finland,\N,EFPY,63.7318992615,25.9263000488
447,Raahe Pattijoki Airport,Pattijoki,Finland,\N,EFRH,64.6881027222,24.6958007812
448,Rantasalmi Airport,Rantasalmi,Finland,\N,EFRN,62.0654983521,28.3565006256
449,Rovaniemi Airport,Rovaniemi,Finland,RVN,EFRO,66.564796447754,25.830400466919
450,Rayskala Airport,Rayskala,Finland,\N,EFRY,60.74470138549805,24.107799530029297
451,Savonlinna Airport,Savonlinna,Finland,SVL,EFSA,61.943099975586,28.945100784302
452,Selanpaa Airport,Selanpaa,Finland,\N,EFSE,61.062400817871094,26.79890060424805
453,Sodankyla Airport,Sodankyla,Finland,SOT,EFSO,67.3949966431,26.619100570700002
454,Tampere-Pirkkala Airport,Tampere,Finland,TMP,EFTP,61.414100646973,23.604400634766
455,Teisko Airport,Teisko,Finland,\N,EFTS,61.7733,24.026999999999997
456,Turku Airport,Turku,Finland,TKU,EFTU,60.514099121094,22.262800216675
457,Utti Air Base,Utti,Finland,QVY,EFUT,60.89640045165999,26.938400268555004
458,Vaasa Airport,Vaasa,Finland,VAA,EFVA,63.050701141357,21.762199401855
459,Varkaus Airport,Varkaus,Finland,VRK,EFVR,62.171100616455,27.868600845337
460,Ylivieska Airfield,Ylivieska-raudaskyla,Finland,\N,EFYL,64.0547222,24.7252778
461,Belfast International Airport,Belfast,United Kingdom,BFS,EGAA,54.6575012207,-6.21582984924
462,St Angelo Airport,Enniskillen,United Kingdom,ENK,EGAB,54.39889907836914,-7.651669979095459
463,George Best Belfast City Airport,Belfast,United Kingdom,BHD,EGAC,54.61809921264648,-5.872499942779541
464,City of Derry Airport,Londonderry,United Kingdom,LDY,EGAE,55.04280090332031,-7.161109924316406
465,Birmingham International Airport,Birmingham,United Kingdom,BHX,EGBB,52.4538993835,-1.7480299472799998
466,Coventry Airport,Coventry,United Kingdom,CVT,EGBE,52.3697013855,-1.47971999645
467,Leicester Airport,Leicester,United Kingdom,\N,EGBG,52.6077995300293,-1.0319399833679201
468,Gloucestershire Airport,Golouchestershire,United Kingdom,GLO,EGBJ,51.89419937133789,-2.1672201156616206
469,Wolverhampton Halfpenny Green Airport,Halfpenny Green,United Kingdom,\N,EGBO,52.51750183105469,-2.2594399452209477
470,Cotswold Airport,Pailton,United Kingdom,\N,EGBP,51.668095,-2.05694
471,Turweston Airport,Turweston,United Kingdom,\N,EGBT,52.0407981873,-1.09555995464
472,Wellesbourne Mountford Airport,Wellesbourne,United Kingdom,\N,EGBW,52.19219970703125,-1.6144399642944336
473,Manchester Airport,Manchester,United Kingdom,MAN,EGCC,53.35369873046875,-2.2749500274658203
474,Manchester Woodford Airport,Woodfort,United Kingdom,\N,EGCD,53.3381,-2.14889
475,Royal Marines Base Chivenor Airport,Chivenor,United Kingdom,\N,EGDC,51.08720016479492,-4.150340080261231
476,Newquay Cornwall Airport,Newquai,United Kingdom,NQY,EGHQ,50.44060134887695,-4.995409965515137
477,RAF Lyneham,Lyneham,United Kingdom,LYE,EGDL,51.5051,-1.99343
478,MoD Boscombe Down Airport,Boscombe Down,United Kingdom,\N,EGDM,51.152198791503906,-1.7474100589752195
479,RNAS Culdrose,Culdrose,United Kingdom,\N,EGDR,50.08610153198242,-5.2557101249694815
480,MOD St. Athan,St. Athan,United Kingdom,\N,EGDX,51.40480041503906,-3.4357500076293945
481,RNAS Yeovilton,Yeovilton,United Kingdom,YEO,EGDY,51.0093994140625,-2.638819932937622
482,Haverfordwest Airport,Haverfordwest,United Kingdom,\N,EGFE,51.83309936523438,-4.9611101150512695
483,Cardiff International Airport,Cardiff,United Kingdom,CWL,EGFF,51.39670181274414,-3.343329906463623
484,Swansea Airport,Swansea,United Kingdom,SWS,EGFH,51.60530090332031,-4.0678300857543945
485,Bristol Airport,Bristol,United Kingdom,BRS,EGGD,51.382702,-2.71909
486,Liverpool John Lennon Airport,Liverpool,United Kingdom,LPL,EGGP,53.33359909057617,-2.849720001220703
487,London Luton Airport,London,United Kingdom,LTN,EGGW,51.87469863891602,-0.36833301186561584
488,Plymouth City Airport,Plymouth,United Kingdom,PLH,EGHD,50.422798,-4.10583
489,Bournemouth Airport,Bournemouth,United Kingdom,BOH,EGHH,50.77999877929688,-1.8424999713897705
490,Southampton Airport,Southampton,United Kingdom,SOU,EGHI,50.95029830932617,-1.3567999601364136
491,Lasham Airport,Lasham,United Kingdom,QLA,EGHL,51.18719863891602,-1.0334999561309814
492,Alderney Airport,Alderney,Guernsey,ACI,EGJA,49.70610046386719,-2.2147200107574463
493,Guernsey Airport,Guernsey,Guernsey,GCI,EGJB,49.43500137329102,-2.601969957351685
494,Jersey Airport,Jersey,Jersey,JER,EGJJ,49.20790100097656,-2.1955099105834956
495,Shoreham Airport,Shoreham By Sea,United Kingdom,ESH,EGKA,50.83560180664063,-0.29722198843955994
496,London Biggin Hill Airport,Biggin Hill,United Kingdom,BQH,EGKB,51.330799102799986,0.032499998807900006
497,London Gatwick Airport,London,United Kingdom,LGW,EGKK,51.14810180664063,-0.19027799367904666
498,London City Airport,London,United Kingdom,LCY,EGLC,51.505299,0.055277999999999994
499,Farnborough Airport,Farnborough,United Kingdom,FAB,EGLF,51.275798797600004,-0.776332974434
500,Chalgrove Airport,Chalsgrove,United Kingdom,\N,EGLJ,51.67610168457031,-1.0808299779891968
501,Blackbushe Airport,Blackbushe,United Kingdom,BBS,EGLK,51.32389831542969,-0.8475000262260437
502,London Heathrow Airport,London,United Kingdom,LHR,EGLL,51.4706,-0.461941
503,Southend Airport,Southend,United Kingdom,SEN,EGMC,51.5713996887207,0.6955559849739075
504,Lydd Airport,Lydd,United Kingdom,LYX,EGMD,50.95610046386719,0.939167022705078
505,Kent International Airport,Manston,United Kingdom,MSE,EGMH,51.342201,1.3461100000000001
506,Brough Airport,Brough,United Kingdom,\N,EGNB,53.7197,-0.566333
507,Carlisle Airport,Carlisle,United Kingdom,CAX,EGNC,54.9375,-2.8091700077056885
508,Retford Gamston Airport,Repton,United Kingdom,\N,EGNE,53.28060150146485,-0.9513890147209167
509,Blackpool International Airport,Blackpool,United Kingdom,BLK,EGNH,53.77170181274414,-3.0286099910736084
510,Humberside Airport,Humberside,United Kingdom,HUY,EGNJ,53.57440185546875,-0.350832998752594
511,Barrow Walney Island Airport,Barrow Island,United Kingdom,BWF,EGNL,54.1286111,-3.2675
512,Leeds Bradford Airport,Leeds,United Kingdom,LBA,EGNM,53.86589813232422,-1.6605700254440308
513,Warton Airport,Warton,United Kingdom,\N,EGNO,53.74509811401367,-2.8830599784851074
514,Hawarden Airport,Hawarden,United Kingdom,CEG,EGNR,53.1781005859375,-2.977780103683472
515,Isle of Man Airport,Isle Of Man,Isle of Man,IOM,EGNS,54.08330154418945,-4.623889923095703
516,Newcastle Airport,Newcastle,United Kingdom,NCL,EGNT,55.037498474121094,-1.6916699409484863
517,Durham Tees Valley Airport,Teesside,United Kingdom,MME,EGNV,54.50920104980469,-1.4294099807739258
518,East Midlands Airport,East Midlands,United Kingdom,EMA,EGNX,52.8311004639,-1.32806003094
519,Llanbedr Airport,Llanbedr,United Kingdom,\N,EGOD,52.811698913574,-4.1235799789428995
520,RAF Ternhill,Ternhill,United Kingdom,\N,EGOE,52.87120056152344,-2.533560037612915
521,RAF Shawbury,Shawbury,United Kingdom,\N,EGOS,52.79819869995117,-2.668040037155152
522,RAF Woodvale,Woodvale,United Kingdom,\N,EGOW,53.5816001892,-3.05552005768
523,Kirkwall Airport,Kirkwall,United Kingdom,KOI,EGPA,58.957801818847656,-2.9049999713897705
524,Sumburgh Airport,Sumburgh,United Kingdom,LSI,EGPB,59.87889862060547,-1.295560002326965
525,Wick Airport,Wick,United Kingdom,WIC,EGPC,58.458900451660156,-3.09306001663208
526,Aberdeen Dyce Airport,Aberdeen,United Kingdom,ABZ,EGPD,57.20190048217773,-2.1977798938751216
527,Inverness Airport,Inverness,United Kingdom,INV,EGPE,57.54249954223633,-4.047500133514403
528,Glasgow International Airport,Glasgow,United Kingdom,GLA,EGPF,55.8718986511,-4.43306016922
529,Edinburgh Airport,Edinburgh,United Kingdom,EDI,EGPH,55.95000076293945,-3.372499942779541
530,Islay Airport,Islay,United Kingdom,ILY,EGPI,55.68190002441406,-6.256669998168945
531,Glasgow Prestwick Airport,Prestwick,United Kingdom,PIK,EGPK,55.5093994140625,-4.586669921875
532,Benbecula Airport,Benbecula,United Kingdom,BEB,EGPL,57.48109817504883,-7.362780094146728
533,Scatsta Airport,Scatsta,United Kingdom,SCS,EGPM,60.43280029296875,-1.2961100339889526
534,Dundee Airport,Dundee,United Kingdom,DND,EGPN,56.45249938964844,-3.0258300304412837
535,Stornoway Airport,Stornoway,United Kingdom,SYY,EGPO,58.215599060058594,-6.3311100006103525
536,Tiree Airport,Tiree,United Kingdom,TRE,EGPU,56.49919891357422,-6.869170188903809
537,RAF Leuchars,Leuchars,United Kingdom,ADX,EGQL,56.37289810180664,-2.8684399127960205
538,RAF Lossiemouth,Lossiemouth,United Kingdom,LMO,EGQS,57.7052001953125,-3.339169979095459
539,Cambridge Airport,Cambridge,United Kingdom,CBG,EGSC,52.2050018311,0.17499999702
540,Peterborough Business Airport,Peterborough,United Kingdom,\N,EGSF,52.46810150146485,-0.2511110007762909
541,Norwich International Airport,Norwich,United Kingdom,NWI,EGSH,52.675800323500006,1.28278005123
542,London Stansted Airport,London,United Kingdom,STN,EGSS,51.8849983215,0.23499999940400002
543,North Weald Airport,North Weald,United Kingdom,\N,EGSX,51.721698761000006,0.154166996479
544,Sheffield City Heliport,Fowlmere,United Kingdom,\N,EGSY,53.394299,-1.38849
545,Cranfield Airport,Cranfield,United Kingdom,\N,EGTC,52.0722007751,-0.616666972637
546,Exeter International Airport,Exeter,United Kingdom,EXT,EGTE,50.73440170288086,-3.4138898849487305
547,Bristol Filton Airport,Bristol,United Kingdom,FZO,EGTG,51.519401550299996,-2.5908300876599997
548,Oxford (Kidlington) Airport,Oxford,United Kingdom,OXF,EGTK,51.8368988037,-1.32000005245
549,RAF Benson,Benson,United Kingdom,\N,EGUB,51.616401672399995,-1.09582996368
550,RAF Lakenheath,Lakenheath,United Kingdom,\N,EGUL,52.409301757799994,0.5609999895100001
551,RAF Mildenhall,Mildenhall,United Kingdom,MHZ,EGUN,52.361900329589844,0.4864059984683991
552,RAF Wattisham,Wattisham,United Kingdom,\N,EGUW,52.1273002625,0.956264019012
553,RAF Wyton,Wyton,United Kingdom,\N,EGUY,52.357200622600004,-0.107832998037
554,RAF Fairford,Fairford,United Kingdom,FFD,EGVA,51.6822013855,-1.7900300025900002
555,RAF Brize Norton,Brize Norton,United Kingdom,BZZ,EGVN,51.75,-1.58362
556,RAF Odiham,Odiham,United Kingdom,ODH,EGVO,51.2341003418,-0.9428250193600001
557,DCAE Cosford Air Base,Cosford,United Kingdom,\N,EGWC,52.639998999999996,-2.30558
558,RAF Northolt,Northolt,United Kingdom,NHT,EGWU,51.5530014038,-0.418166995049
559,RAF Coningsby,Coningsby,United Kingdom,QCY,EGXC,53.0929985046,-0.166014000773
560,RAF Dishforth,Dishforth,United Kingdom,\N,EGXD,54.1371994019,-1.42025005817
561,Leeming Airport,Leeming,United Kingdom,\N,EGXE,54.2924,-1.5354
562,Leeds East Airport,Church Fenton,United Kingdom,\N,EGXG,53.834301,-1.1955
563,RAF Honington,Honington,United Kingdom,BEQ,EGXH,52.34260177612305,0.7729390263557434
564,RAF Cottesmore,Cottesmore,United Kingdom,\N,EGXJ,52.735699,-0.6487689999999999
565,RAF Scampton,Scampton,United Kingdom,\N,EGXP,53.307800293,-0.550832986832
566,RAF Wittering,Wittering,United Kingdom,\N,EGXT,52.6125984192,-0.476453006268
567,RAF Linton-On-Ouse,Linton-on-ouse,United Kingdom,HRT,EGXU,54.0489006042,-1.2527500391
568,RAF Waddington,Waddington,United Kingdom,WTN,EGXW,53.1661987305,-0.5238109827040001
569,RAF Topcliffe,Topcliffe,United Kingdom,\N,EGXZ,54.2055015564,-1.3820899725
570,RAF Cranwell,Cranwell,United Kingdom,\N,EGYD,53.0303001404,-0.4832420051100001
571,RAF Barkston Heath,Barkston Heath,United Kingdom,\N,EGYE,52.962200164799995,-0.561625003815
572,RAF Marham,Marham,United Kingdom,KNF,EGYM,52.648394999999994,0.550692
573,Mount Pleasant Airport,Mount Pleasant,Falkland Islands,MPN,EGYP,-51.82279968261719,-58.44720077514648
574,Amsterdam Airport Schiphol,Amsterdam,Netherlands,AMS,EHAM,52.308601379399995,4.7638897895799985
575,Budel Airport,Weert,Netherlands,\N,EHBD,51.2552986145,5.60138988495
576,Maastricht Aachen Airport,Maastricht,Netherlands,MST,EHBK,50.911701202399996,5.77014017105
577,Deelen Air Base,Deelen,Netherlands,\N,EHDL,52.0606,5.87306
578,Drachten Airport,Drachten,Netherlands,\N,EHDR,53.119201660200005,6.12972021103
579,Eindhoven Airport,Eindhoven,Netherlands,EIN,EHEH,51.4500999451,5.374529838559999
580,Eelde Airport,Groningen,Netherlands,GRQ,EHGG,53.1197013855,6.579440116880001
581,Gilze Rijen Air Base,Gilze-rijen,Netherlands,\N,EHGR,51.56740188598633,4.931829929351807
582,De Kooy Airport,De Kooy,Netherlands,DHR,EHKD,52.92340087890625,4.780620098114014
583,Lelystad Airport,Lelystad,Netherlands,LEY,EHLE,52.46030044555664,5.527219772338867
584,Leeuwarden Air Base,Leeuwarden,Netherlands,LWR,EHLW,53.228599548339844,5.760560035705566
585,Rotterdam The Hague Airport,Rotterdam,Netherlands,RTM,EHRD,51.956902,4.43722
586,Soesterberg Air Base,Soesterberg,Netherlands,UTC,EHSB,52.1273002625,5.27618980408
587,Twente Airfield,Enschede,Netherlands,ENS,EHTW,52.275833299999995,6.8891667000000005
588,Valkenburg Naval Air Base,Valkenburg,Netherlands,LID,EHVB,52.1660995483,4.41794013977
589,Woensdrecht Air Base,Woensdrecht,Netherlands,WOE,EHWO,51.4491,4.34203
590,Cork Airport,Cork,Ireland,ORK,EICK,51.84130096435547,-8.491109848022461
591,Galway Airport,Galway,Ireland,GWY,EICM,53.30020141601562,-8.941590309143066
592,Dublin Airport,Dublin,Ireland,DUB,EIDW,53.42129898071289,-6.2700700759887695
593,Ireland West Knock Airport,Connaught,Ireland,NOC,EIKN,53.9103012084961,-8.818490028381348
594,Kerry Airport,Kerry,Ireland,KIR,EIKY,52.18090057373047,-9.52377986907959
595,Casement Air Base,Casement,Ireland,\N,EIME,53.301700591999996,-6.451330184940001
596,Shannon Airport,Shannon,Ireland,SNN,EINN,52.701999664307,-8.9248199462891
597,Sligo Airport,Sligo,Ireland,SXL,EISG,54.280200958252,-8.599209785461401
598,Waterford Airport,Waterford,Ireland,WAT,EIWF,52.18719863891602,-7.086959838867188
599,Aarhus Airport,Aarhus,Denmark,AAR,EKAH,56.2999992371,10.619000434899998
600,Billund Airport,Billund,Denmark,BLL,EKBI,55.7402992249,9.15178012848
601,Copenhagen Kastrup Airport,Copenhagen,Denmark,CPH,EKCH,55.617900848389,12.656000137328999
602,Esbjerg Airport,Esbjerg,Denmark,EBJ,EKEB,55.5259017944336,8.553400039672853
603,Grønholt Hillerød Airport,Gronholt,Denmark,\N,EKGH,55.94139862060547,12.382200241088867
604,Karup Airport,Karup,Denmark,KRP,EKKA,56.29750061035156,9.124629974365234
605,Læsø Airport,Laeso,Denmark,\N,EKLS,57.277198791503906,11.000100135803224
606,Lolland Falster Maribo Airport,Maribo,Denmark,\N,EKMB,54.699298999999996,11.4401
607,Odense Airport,Odense,Denmark,ODE,EKOD,55.47669982910156,10.330900192260742
608,Kruså-Padborg Airport,Krusa-padborg,Denmark,\N,EKPB,54.87030029296875,9.279009819030762
609,Copenhagen Roskilde Airport,Copenhagen,Denmark,RKE,EKRK,55.58560180664063,12.131400108337402
610,Bornholm Airport,Ronne,Denmark,RNN,EKRN,55.06330108642578,14.759599685668945
611,Sønderborg Airport,Soenderborg,Denmark,SGD,EKSB,54.96440124511719,9.791729927062988
612,Skrydstrup Air Base,Skrydstrup,Denmark,SKS,EKSP,55.221047999999996,9.26702
613,Skive Airport,Skive,Denmark,\N,EKSV,56.55020141601562,9.172980308532717
614,Thisted Airport,Thisted,Denmark,TED,EKTS,57.06880187988281,8.705220222473145
615,Kolding Vamdrup Airport,Kolding,Denmark,\N,EKVD,55.4362983704,9.33092021942
616,Vagar Airport,Vagar,Faroe Islands,FAE,EKVG,62.0635986328125,-7.277219772338867
617,Vesthimmerlands Flyveplads,Vesthimmerland,Denmark,\N,EKVH,56.846901,9.45861
618,Stauning Airport,Stauning,Denmark,STA,EKVJ,55.9901008605957,8.353910446166992
619,Aalborg Airport,Aalborg,Denmark,AAL,EKYT,57.092758913800004,9.84924316406
620,Luxembourg-Findel International Airport,Luxemburg,Luxembourg,LUX,ELLX,49.6233333,6.204444400000001
621,Ålesund Airport,Alesund,Norway,AES,ENAL,62.5625,6.119699954986572
622,Andøya Airport,Andoya,Norway,ANX,ENAN,69.292503356934,16.144199371338
623,Alta Airport,Alta,Norway,ALF,ENAT,69.976097106934,23.371700286865
624,Bømoen Airport,Voss,Norway,\N,ENBM,60.63890075683594,6.501500129699707
625,Brønnøysund Airport,Bronnoysund,Norway,BNN,ENBN,65.461097717285,12.217499732971001
626,Bodø Airport,Bodo,Norway,BOO,ENBO,67.26920318603516,14.365300178527832
627,Bergen Airport Flesland,Bergen,Norway,BGO,ENBR,60.29339981,5.218140125
628,Båtsfjord Airport,Batsfjord,Norway,BJF,ENBS,70.60050201416,29.691400527954002
629,Kristiansand Airport,Kristiansand,Norway,KRS,ENCN,58.2042007446289,8.085370063781737
630,Geilo Airport Dagali,Geilo,Norway,\N,ENDI,60.41730117797852,8.518349647521973
631,Bardufoss Airport,Bardufoss,Norway,BDU,ENDU,69.055801391602,18.540399551392
632,"Harstad/Narvik Airport, Evenes",Harstad/Narvik,Norway,EVE,ENEV,68.491302490234,16.678100585938
633,Leirin Airport,Fagernes,Norway,VDB,ENFG,61.015598297119,9.2880601882935
634,Florø Airport,Floro,Norway,FRO,ENFL,61.583599090576,5.0247201919556
635,Oslo Gardermoen Airport,Oslo,Norway,OSL,ENGM,60.193901062011996,11.100399971008
636,Haugesund Airport,Haugesund,Norway,HAU,ENHD,59.34529876709001,5.208360195159901
637,Hasvik Airport,Hasvik,Norway,HAA,ENHK,70.486701965332,22.139699935913
638,Kristiansund Airport (Kvernberget),Kristiansund,Norway,KSU,ENKB,63.111801147461,7.8245201110839995
639,Kjeller Airport,Kjeller,Norway,\N,ENKJ,59.969299316400004,11.0361003876
640,Kirkenes Airport (Høybuktmoen),Kirkenes,Norway,KKN,ENKR,69.725799560547,29.891300201416
641,Lista Airport,Farsund,Norway,FAN,ENLI,58.0994987487793,6.626049995422362
642,Molde Airport,Molde,Norway,MOL,ENML,62.744701385498,7.262499809265099
643,Mosjøen Airport (Kjærstad),Mosjoen,Norway,MJF,ENMS,65.78399658203101,13.214900016785
644,Banak Airport,Lakselv,Norway,LKL,ENNA,70.068801879883,24.973499298095998
645,Notodden Airport,Notodden,Norway,NTB,ENNO,59.565701000000004,9.21222
646,Ørland Airport,Orland,Norway,OLA,ENOL,63.69889831542969,9.604000091552734
647,Røros Airport,Roros,Norway,RRS,ENRO,62.578399658203004,11.342300415039
648,Moss-Rygge Airport,Rygge,Norway,RYG,ENRY,59.378817000000005,10.785439
649,"Svalbard Airport, Longyear",Svalbard,Norway,LYR,ENSB,78.246101379395,15.465600013733
650,Skien Airport,Skien,Norway,SKE,ENSN,59.18500137329102,9.566940307617188
651,Stord Airport,Stord,Norway,SRP,ENSO,59.79190063476562,5.340849876403809
652,Sandnessjøen Airport (Stokka),Sandnessjoen,Norway,SSJ,ENST,65.95680236816399,12.468899726868
653,Tromsø Airport,Tromso,Norway,TOS,ENTC,69.68329620361328,18.91889953613281
654,"Sandefjord Airport, Torp",Sandefjord,Norway,TRF,ENTO,59.1866989136,10.258600235
655,Trondheim Airport Værnes,Trondheim,Norway,TRD,ENVA,63.45780179999999,10.9239998
656,Stavanger Airport Sola,Stavanger,Norway,SVG,ENZV,58.876701354,5.637780189500001
657,Babice Airport,Warsaw,Poland,\N,EPBC,52.26850128173828,20.910999298095703
658,Gdańsk Lech Wałęsa Airport,Gdansk,Poland,GDN,EPGD,54.377601623535156,18.46619987487793
659,John Paul II International Airport Kraków-Balice Airport,Krakow,Poland,KRK,EPKK,50.07770156860352,19.784799575805664
660,Muchowiec Airport,Katowice,Poland,\N,EPKM,50.23809814453125,19.03420066833496
661,Katowice International Airport,Katowice,Poland,KTW,EPKT,50.4743,19.08
662,Mielec Airport,Mielec,Poland,\N,EPML,50.32229995727539,21.462099075317386
663,Poznań-Ławica Airport,Poznan,Poland,POZ,EPPO,52.4210014343,16.8262996674
664,Rzeszów-Jasionka Airport,Rzeszow,Poland,RZE,EPRZ,50.1100006104,22.018999099699997
665,"Szczecin-Goleniów \Solidarność\"" Airport""",Szczecin,Poland,SZZ,EPSC,53.584701538100006,14.902199745199999
666,Redzikowo Air Base,Slupsk,Poland,OSP,EPSK,54.47890090942383,17.107500076293945
667,Swidwin Military Air Base,Shapaja,Poland,\N,EPSN,53.790599823,15.8262996674
668,Warsaw Chopin Airport,Warsaw,Poland,WAW,EPWA,52.1656990051,20.9671001434
669,Copernicus Wrocław Airport,Wroclaw,Poland,WRO,EPWR,51.10269927979999,16.885799408
670,Zielona Góra-Babimost Airport,Zielona Gora,Poland,IEG,EPZG,52.1385002136,15.7986001968
671,Malmen Air Base,Linkoeping,Sweden,\N,ESCF,58.40230178833008,15.525699615478516
672,Bråvalla Air Base,Norrkoeping,Sweden,\N,ESCK,58.61090087890625,16.103599548339847
673,Uppsala Airport,Uppsala,Sweden,\N,ESCM,59.89730072021485,17.588600158691403
674,Ronneby Airport,Ronneby,Sweden,RNB,ESDF,56.266700744629,15.265000343322999
675,Råda Air Base,Rada,Sweden,\N,ESFR,58.49810028076172,13.053199768066404
676,Gothenburg-Landvetter Airport,Gothenborg,Sweden,GOT,ESGG,57.662799835205,12.279800415039
677,Jönköping Airport,Joenkoeping,Sweden,JKG,ESGJ,57.75759887695313,14.068699836730955
678,Falköping Airport,Falkoping,Sweden,\N,ESGK,58.1697998046875,13.58780002593994
679,Lidköping-Hovby Airport,Lidkoping,Sweden,LDK,ESGL,58.46549987793,13.174400329589998
680,Gothenburg City Airport,Gothenborg,Sweden,GSE,ESGP,57.77470016479492,11.870400428771973
681,Skövde Airport,Skovde,Sweden,KVB,ESGR,58.45640182495117,13.972700119018555
682,Trollhättan-Vänersborg Airport,Trollhattan,Sweden,THN,ESGT,58.31809997558594,12.345000267028807
683,Karlsborg Air Base,Karlsborg,Sweden,\N,ESIA,58.51380157470703,14.507100105285645
684,Såtenäs Air Base,Satenas,Sweden,\N,ESIB,58.42639923095703,12.714400291442873
685,Barkarby Airport,Stockholm,Sweden,\N,ESKB,59.41447436439999,17.8821372986
686,Karlskoga Airport,Karlskoga,Sweden,KSK,ESKK,59.34590148925781,14.49590015411377
687,Mora Airport,Mora,Sweden,MXX,ESKM,60.95790100097656,14.51140022277832
688,Stockholm Skavsta Airport,Stockholm,Sweden,NYO,ESKN,58.78860092163086,16.912200927734375
689,Arvika Airport,Arvika,Sweden,\N,ESKV,59.67589950561523,12.639399528503418
690,Emmaboda Airfield,Emmaboda,Sweden,\N,ESMA,56.610802,15.6048
691,Feringe Airport,Ljungby,Sweden,\N,ESMG,56.9502983093,13.921699523900001
692,Kristianstad Airport,Kristianstad,Sweden,KID,ESMK,55.92169952392578,14.08549976348877
693,Landskrona Airport,Landskrona,Sweden,JLD,ESML,55.94599914550781,12.869999885559082
694,Oskarshamn Airport,Oskarshamn,Sweden,OSK,ESMO,57.350498199463,16.497999191284002
695,Anderstorp Airport,Anderstorp,Sweden,\N,ESMP,57.264198303222656,13.59939956665039
696,Kalmar Airport,Kalkmar,Sweden,KLR,ESMQ,56.68550109863281,16.287599563598633
697,Malmö Sturup Airport,Malmoe,Sweden,MMX,ESMS,55.53630536399999,13.3761978149
698,Halmstad Airport,Halmstad,Sweden,HAD,ESMT,56.69110107421875,12.820199966430664
699,Hagshult Airport,Hagshult,Sweden,\N,ESMV,57.2921981812,14.1372003555
700,Växjö Kronoberg Airport,Vaxjo,Sweden,VXO,ESMX,56.929100036621094,14.727999687194824
701,Hallviken Airport,Hallviken,Sweden,\N,ESNA,63.73830032348633,15.45829963684082
702,Hedlanda Airport,Hede,Sweden,\N,ESNC,62.40890121459999,13.7472000122
703,Sveg Airport,Sveg,Sweden,EVG,ESND,62.04779815673828,14.422900199890135
704,Gällivare Airport,Gallivare,Sweden,GEV,ESNG,67.13240051269531,20.814599990844727
705,Hudiksvall Airport,Hudiksvall,Sweden,HUV,ESNH,61.7681007385,17.0806999207
706,Jokkmokk Airport,Jokkmokk,Sweden,\N,ESNJ,66.49620056152344,20.147199630737305
707,Kramfors Sollefteå Airport,Kramfors,Sweden,KRF,ESNK,63.04859924316406,17.76889991760254
708,Lycksele Airport,Lycksele,Sweden,LYC,ESNL,64.54830169677734,18.71619987487793
709,Optand Airport,Optand,Sweden,\N,ESNM,63.12860107421875,14.802800178527832
710,Sundsvall-Härnösand Airport,Sundsvall,Sweden,SDL,ESNN,62.528099060058594,17.443899154663086
711,Örnsköldsvik Airport,Ornskoldsvik,Sweden,OER,ESNO,63.40829849243164,18.989999771118164
712,Piteå Airport,Pitea,Sweden,\N,ESNP,65.39830017089844,21.260799407958984
713,Kiruna Airport,Kiruna,Sweden,KRN,ESNQ,67.821998596191,20.336799621582
714,Orsa Airport,Orsa,Sweden,\N,ESNR,61.18999862670898,14.712599754333494
715,Skellefteå Airport,Skelleftea,Sweden,SFT,ESNS,64.62480163574219,21.076900482177734
716,Sättna Airport,Sattna,Sweden,\N,ESNT,62.4814,17.002899
717,Umeå Airport,Umea,Sweden,UME,ESNU,63.791801452636996,20.282800674438
718,Vilhelmina Airport,Vilhelmina,Sweden,VHM,ESNV,64.5791015625,16.833599090576172
719,Arvidsjaur Airport,Arvidsjaur,Sweden,AJR,ESNX,65.59030151367189,19.28190040588379
720,Örebro Airport,Orebro,Sweden,ORB,ESOE,59.22370147705078,15.038000106811525
721,Stockholm Västerås Airport,Vasteras,Sweden,VST,ESOW,59.58940124511719,16.633600234985348
722,Luleå Airport,Lulea,Sweden,LLA,ESPA,65.543800354004,22.121999740601
723,Vidsel Air Base,Vidsel,Sweden,\N,ESPE,65.87529754638672,20.149900436401367
724,Arboga Airport,Arboga,Sweden,\N,ESQO,59.38660049438477,15.924099922180176
725,Stockholm-Arlanda Airport,Stockholm,Sweden,ARN,ESSA,59.651901245116996,17.918600082397
726,Stockholm-Bromma Airport,Stockholm,Sweden,BMA,ESSB,59.35440063476562,17.941699981689453
727,Borlange Airport,Borlange,Sweden,BLE,ESSD,60.42200088500977,15.515199661254885
728,Hultsfred Airport,Hultsfred,Sweden,HLF,ESSF,57.525798797607,15.823300361633
729,Gävle Sandviken Airport,Gavle,Sweden,GVX,ESSK,60.593299865722656,16.951400756835938
730,Linköping City Airport,Linkoeping,Sweden,LPI,ESSL,58.406200408900006,15.6805000305
731,Norrköping Airport,Norrkoeping,Sweden,NRK,ESSP,58.58629989624024,16.250600814819336
732,Eskilstuna Airport,Eskilstuna,Sweden,\N,ESSU,59.35110092163086,16.70840072631836
733,Visby Airport,Visby,Sweden,VBY,ESSV,57.662799835205,18.346200942993
734,Kalixfors Airport,Kalixfors,Sweden,\N,ESUK,67.76480102539061,20.257200241088867
735,Spangdahlem Air Base,Spangdahlem,Germany,SPM,ETAD,49.9726982117,6.6925001144400005
736,Ramstein Air Base,Ramstein,Germany,RMS,ETAR,49.4369010925293,7.600279808044434
737,Bamberg Aaf,Bamberg,Germany,\N,ETEJ,49.920433,10.914233
738,[Duplicate] Giebelstadt Army Air Field,Giebelstadt,Germany,GHF,ETEU,49.648101806599996,9.966489791870002
739,Bückeburg Air Base,Brueckeburg,Germany,\N,ETHB,52.2785,9.08217
740,Celle Airport,Celle,Germany,ZCN,ETHC,52.59120178222656,10.022100448608398
741,Rheine Bentlage Air Base,Rheine-brentlange,Germany,\N,ETHE,52.291199,7.3870000000000005
742,Fritzlar Airport,Fritzlar,Germany,\N,ETHF,51.1146,9.286
743,Laupheim Air Base,Laupheim,Germany,\N,ETHL,48.220299,9.91002
744,Mendig Airport,Mendig,Germany,\N,ETHM,50.3660011292,7.31533002853
745,Niederstetten Army Air Base,Niederstetten,Germany,\N,ETHN,49.391945,9.958889
746,Roth Airport,Roth,Germany,\N,ETHR,49.21749877929688,11.100199699401855
747,Fassberg Air Base,Fassberg,Germany,\N,ETHS,52.919399,10.185827
748,Grafenwohr Army Air Field,Grafenwoehr,Germany,\N,ETIC,49.69869995117188,11.940199851989744
749,Hanau Army Air Field,Hanau,Germany,ZNF,ETID,50.169201,8.96159
750,Hohenfels Army Air Field,Hohenfels,Germany,\N,ETIH,49.21810150146485,11.836099624633787
751,Kitzingen Army Air Field,Kitzingen,Germany,\N,ETIN,49.74309921264648,10.200599670410156
752,Nordholz Naval Airbase,Nordholz,Germany,\N,ETMN,53.767700195299994,8.658499717709999
753,Diepholz Air Base,Diepholz,Germany,\N,ETND,52.585556000000004,8.342222
754,Geilenkirchen Air Base,Geilenkirchen,Germany,GKE,ETNG,50.9608,6.04242
755,Hohn Airport,Hohn,Germany,\N,ETNH,54.31219863891602,9.538169860839844
756,Jever Air Base,Jever,Germany,\N,ETNJ,53.533501,7.888669999999999
757,Rostock-Laage Airport,Laage,Germany,RLG,ETNL,53.9182014465,12.2783002853
758,Nörvenich Air Base,Noervenich,Germany,\N,ETNN,50.8312,6.65817
759,Schleswig Air Base,Schleswig,Germany,\N,ETNS,54.459301,9.51633
760,Wittmundhafen Airport,Wittmundhafen,Germany,\N,ETNT,53.54779815673828,7.667329788208008
761,Neubrandenburg,Neubrandenburg,Germany,\N,ETNU,53.602167,13.306
762,Wunstorf Air Base,Wunstorf,Germany,\N,ETNW,52.457298,9.42717
763,Vilseck Army Air Field,Vilseck,Germany,\N,ETOI,49.63359832763672,11.767200469970705
764,Coleman Army Air Field,Coleman,Germany,\N,ETOR,49.5635986328125,8.463390350341799
765,Wiesbaden Army Airfield,Wiesbaden,Germany,\N,ETOU,50.04980087280274,8.325400352478027
766,Landsberg Lech Air Base,Landsberg,Germany,\N,ETSA,48.070599,10.905999999999999
767,Büchel Air Base,Buechel,Germany,\N,ETSB,50.1738014221,7.06333017349
768,Erding Airport,Erding,Germany,\N,ETSE,48.32229995727539,11.948699951171875
769,Fürstenfeldbruck Airport,Fuerstenfeldbruck,Germany,FEL,ETSF,48.2055549621582,11.26694393157959
770,Holzdorf Air Base,Holzdorf,Germany,\N,ETSH,51.767799,13.1677
771,Ingolstadt Manching Airport,Ingolstadt,Germany,IGS,ETSI,48.7156982421875,11.534000396728516
772,Lechfeld Airport,Lechfeld,Germany,\N,ETSL,48.18550109863281,10.861200332641602
773,Neuburg AFB,Neuburg,Germany,\N,ETSN,48.710999,11.2115
774,Gütersloh Air Base,Guetersloh,Germany,GUT,ETUO,51.922798,8.30633
775,Alexander Bay Airport,Alexander Bay,South Africa,ALJ,FAAB,-28.5750007629,16.5333003998
776,Aggeneys Airport,Aggeneys,South Africa,AGZ,FAAG,-29.28179931640625,18.813899993896484
777,Brakpan Airport,Brakpan,South Africa,\N,FABB,-26.23859977722168,28.301799774169922
778,Bisho Airport,Bisho,South Africa,BIY,FABE,-32.897098541300004,27.2791004181
779,Bram Fischer International Airport,Bloemfontein,South Africa,BFN,FABL,-29.092699050900002,26.302400589
780,Bethlehem Airport,Bethlehem,South Africa,\N,FABM,-28.248399734499998,28.3360996246
781,Hendrik Potgieter Airport,Bothaville,South Africa,\N,FABO,-27.36680030822754,26.62919998168945
782,Cape Town International Airport,Cape Town,South Africa,CPT,FACT,-33.9648017883,18.6016998291
783,Calvinia Airport,Calvinia,South Africa,\N,FACV,-31.50029945373535,19.725900650024414
784,King Shaka International Airport,Durban,South Africa,DUR,FALE,-29.6144444444,31.119722222199997
785,Ben Schoeman Airport,East London,South Africa,ELS,FAEL,-33.0355987549,27.825899124099998
786,Ermelo Airport,Ermelo,South Africa,\N,FAEO,-26.4955997467041,29.979799270629886
787,Ficksburg Sentraoes Airport,Ficksburg,South Africa,\N,FAFB,-28.82309913635254,27.908899307250977
788,Grand Central Airport,Johannesburg,South Africa,GCJ,FAGC,-25.986299514799995,28.1401004791
789,George Airport,George,South Africa,GRJ,FAGG,-34.0055999756,22.378900528000003
790,Graaff Reinet Airport,Graaff Reinet,South Africa,\N,FAGR,-32.19359970092773,24.541400909423828
791,Grahamstown Airport,Grahamstown,South Africa,\N,FAGT,-33.284698486328125,26.49810028076172
792,Greytown Airport,Greytown,South Africa,\N,FAGY,-29.1219997406,30.5867004395
793,Harmony Airport,Harmony,South Africa,\N,FAHA,-28.07869911193848,26.8612003326416
794,Harrismith Airport,Harrismith,South Africa,\N,FAHR,-28.23509979248047,29.10619926452637
795,Hoedspruit Air Force Base Airport,Hoedspruit,South Africa,HDS,FAHS,-24.3686008453,31.048700332600003
796,Gariep Dam Airport,Hendrik Verwoerddam,South Africa,\N,FAHV,-30.56220054626465,25.52829933166504
797,OR Tambo International Airport,Johannesburg,South Africa,JNB,FAJS,-26.1392,28.246
798,P C Pelser Airport,Klerksdorp,South Africa,\N,FAKD,-26.8710994720459,26.718000411987305
799,Kimberley Airport,Kimberley,South Africa,KIM,FAKM,-28.802799224900003,24.765199661300002
800,Krugersdorp Airport,Krugersdorp,South Africa,\N,FAKR,-26.080825919899997,27.725914955100002
801,Kroonstad Airport,Kroonstad,South Africa,\N,FAKS,-27.660600662231445,27.31579971313477
802,Johan Pienaar Airport,Kuruman,South Africa,KMH,FAKU,-27.45669937133789,23.411399841308594
803,Kleinsee Airport,Kleinsee,South Africa,KLZ,FAKZ,-29.688400268600002,17.093999862700002
804,Lanseria Airport,Johannesburg,South Africa,HLA,FALA,-25.9384994507,27.926099777199997
805,Lichtenburg Airport,Lichtenburg,South Africa,\N,FALI,-26.17569923400879,26.184600830078125
806,Makhado Air Force Base Airport,Lambertsbaai,South Africa,\N,FALM,-23.159900665283203,29.69650077819824
807,Langebaanweg Airport,Langebaanweg,South Africa,\N,FALW,-32.9688987732,18.1602993011
808,Ladysmith Airport,Ladysmith,South Africa,LAY,FALY,-28.5816993713,29.7497005463
809,Middelburg Airport,Middelburg,South Africa,\N,FAMB,-25.684799194335934,29.440200805664066
810,Margate Airport,Margate,South Africa,MGH,FAMG,-30.8574008942,30.343000412
811,Marble Hall Airport,Marble Hall,South Africa,\N,FAMI,-24.98909950256348,29.283100128173828
812,Majuba Power Station Airport,Majuba Power Station,South Africa,\N,FAMJ,-27.079299926799997,29.7784996033
813,Riverside Airport,Malalane,South Africa,\N,FAMN,-25.4300003052,31.5767002106
814,Morningside Farm Airport,Musina,South Africa,MEZ,FAMS,-25.7045001984,26.9090003967
815,Mkuze Airport,Mkuze,South Africa,\N,FAMU,-27.62610054016113,32.044300079345696
816,Newcastle Airport,Newcastle,South Africa,NCS,FANC,-27.7705993652,29.9769001007
817,Nylstroom Airfield,Nylstroom,South Africa,\N,FANY,-24.68610000610352,28.43490028381348
818,Overberg Airport,Overberg,South Africa,\N,FAOB,-34.554901123,20.250699996900003
819,Oudtshoorn Airport,Oudtshoorn,South Africa,DUH,FAOH,-33.6069984436,22.188999176
820,Port Elizabeth Airport,Port Elizabeth,South Africa,PLZ,FAPE,-33.984901428200004,25.617300033600003
821,Plettenberg Bay Airport,Plettenberg Bay,South Africa,\N,FAPG,-34.0881601675,23.3287234306
822,Hendrik Van Eck Airport,Phalaborwa,South Africa,PHW,FAPH,-23.9372005463,31.1553993225
823,Pietersburg Municipal Airport,Polokwane,South Africa,\N,FAPI,-23.926099777199997,29.484399795500003
824,Port St Johns Airport,Port Saint Johns,South Africa,\N,FAPJ,-31.605899810791016,29.51980018615723
825,Pietermaritzburg Airport,Pietermaritzburg,South Africa,PZB,FAPM,-29.6490001678,30.3987007141
826,Pilanesberg International Airport,Pilanesberg,South Africa,NTY,FAPN,-25.333799362199997,27.173400878900004
827,Polokwane International Airport,Potgietersrus,South Africa,PTG,FAPP,-23.845269000000002,29.458615
828,Potchefstroom Airport,Potchefstroom,South Africa,\N,FAPS,-26.670999527,27.081899642899998
829,Parys Airport,Parys,South Africa,\N,FAPY,-26.889299392700195,27.503400802612305
830,Queenstown Airport,Queenstown,South Africa,UTW,FAQT,-31.92020034790039,26.88220024108887
831,Richards Bay Airport,Richard's Bay,South Africa,RCB,FARB,-28.740999221800003,32.0920982361
832,Rustenburg Airport,Rustenburg,South Africa,\N,FARG,-25.6443004608,27.2710990906
833,Robertson Airport,Robertson,South Africa,ROD,FARS,-33.812198638916016,19.90279960632324
834,Springbok Airport,Springbok,South Africa,SBU,FASB,-29.68930053710937,17.939599990844727
835,Secunda Airport,Secunda,South Africa,\N,FASC,-26.52409935,29.1700992584
836,Saldanha /Vredenburg Airport,Saldanha,South Africa,\N,FASD,-32.964099884,17.9692993164
837,Springs Airfield,Springs,South Africa,\N,FASI,-26.2494004736,28.398271560700003
838,Swartkop Air Force Base,Swartkop,South Africa,\N,FASK,-25.809700012199997,28.1646003723
839,Sishen Airport,Sishen,South Africa,SIS,FASS,-27.6485996246,22.9993000031
840,Hendrik Swellengrebel Airport,Swellendam,South Africa,\N,FASX,-34.04819869995117,20.47459983825684
841,Skukuza Airport,Skukuza,South Africa,SZK,FASZ,-24.960899353000002,31.588699340799998
842,Tommys Field Airport,Tommy's Field,South Africa,\N,FATF,-28.26000022888184,22.993200302124023
843,New Tempe Airport,Bloemfontein,South Africa,\N,FATP,-29.032899856567386,26.15760040283203
844,Tutuka Power Station Airport,Tutuka,South Africa,\N,FATT,-26.776599884,29.3388004303
845,Tzaneen Airport,Tzaneen,South Africa,LTA,FATZ,-23.824399948099998,30.329299926799997
846,Prince Mangosuthu Buthelezi Airport,Ulundi,South Africa,ULD,FAUL,-28.320600509600002,31.4165000916
847,Pierre Van Ryneveld Airport,Upington,South Africa,UTN,FAUP,-28.39909935,21.260200500499998
848,K. D. Matanzima Airport,Umtata,South Africa,UTT,FAUT,-31.5463631849,28.6733551025
849,Vryburg Airport,Vryburg,South Africa,VRU,FAVB,-26.9824008942,24.728799819899997
850,Virginia Airport,Durban,South Africa,VIR,FAVG,-29.77059936523437,31.05839920043945
851,Vredendal Airport,Vredendal,South Africa,\N,FAVR,-31.641000747680664,18.5447998046875
852,Vereeniging Airport,Vereeniging,South Africa,\N,FAVV,-26.566400528000003,27.9608001709
853,Wonderboom Airport,Pretoria,South Africa,PRY,FAWB,-25.6539,28.224199
854,Witbank Airport,Witbank,South Africa,\N,FAWI,-25.832300186199998,29.1919994354
855,Waterkloof Air Force Base,Waterkloof,South Africa,\N,FAWK,-25.829999923699997,28.222499847399998
856,Welkom Airport,Welkom,South Africa,WEL,FAWM,-27.9968245111,26.6633338928
857,Ysterplaat Air Force Base,Ysterplaat,South Africa,\N,FAYP,-33.90019989013672,18.498300552368164
858,Zeerust Airport,Zeerust,South Africa,\N,FAZR,-25.59900093078613,26.042299270629886
859,Francistown Airport,Francistown,Botswana,FRW,FBFT,-21.15959930419922,27.47450065612793
860,Jwaneng Airport,Jwaneng,Botswana,JWA,FBJW,-24.6023006439209,24.69099998474121
861,Kasane Airport,Kasane,Botswana,BBK,FBKE,-17.83289909362793,25.16239929199219
862,Maun Airport,Maun,Botswana,MUB,FBMN,-19.97260093688965,23.431100845336914
863,Sir Seretse Khama International Airport,Gaberone,Botswana,GBE,FBSK,-24.55520057678223,25.91819953918457
864,Selebi Phikwe Airport,Selebi-phikwe,Botswana,PKW,FBSP,-22.0583,27.8288
865,Maya-Maya Airport,Brazzaville,Congo (Brazzaville),BZV,FCBB,-4.251699924468993,15.253000259399414
866,Owando Airport,Owando,Congo (Kinshasa),FTX,FCOO,-0.5313500165939331,15.95009994506836
867,Ouesso Airport,Ouesso,Congo (Kinshasa),OUE,FCOU,1.6159900426899998,16.0379009247
868,Pointe Noire Airport,Pointe-noire,Congo (Brazzaville),PNR,FCPP,-4.816030025482178,11.88659954071045
869,Matsapha Airport,Manzini,Swaziland,MTS,FDMS,-26.52899932861328,31.3075008392334
870,Bangui M'Poko International Airport,Bangui,Central African Republic,BGF,FEFF,4.39847993850708,18.518800735473636
871,Berbérati Airport,Berberati,Central African Republic,BBT,FEFT,4.221580028533936,15.786399841308596
872,Bata Airport,Bata,Equatorial Guinea,BSG,FGBT,1.9054700136184688,9.80568027496338
873,Malabo Airport,Malabo,Equatorial Guinea,SSG,FGSL,3.7552700042724614,8.708720207214355
874,RAF Ascension Island,Wide Awake,Saint Helena,ASI,FHAW,-7.969600200653076,-14.393699645996096
875,Sir Seewoosagur Ramgoolam International Airport,Plaisance,Mauritius,MRU,FIMP,-20.430200576782227,57.68360137939453
876,Sir Charles Gaetan Duval Airport,Rodriguez Island,Mauritius,RRG,FIMR,-19.757699966430664,63.361000061035156
877,Diego Garcia Naval Support Facility,Diego Garcia Island,British Indian Ocean Territory,\N,FJDG,-7.313269999999999,72.411102
878,Tiko Airport,Tiko,Cameroon,TKC,FKKC,4.08919000626,9.360529899600001
879,Douala International Airport,Douala,Cameroon,DLA,FKKD,4.0060801506,9.71947956085
880,Salak Airport,Maroua,Cameroon,MVR,FKKL,10.45139980316162,14.257399559020994
881,Foumban Nkounja Airport,Foumban,Cameroon,FOM,FKKM,5.636919975280763,10.750800132751463
882,N'Gaoundéré Airport,N'gaoundere,Cameroon,NGE,FKKN,7.357009887695312,13.559200286865234
883,Garoua International Airport,Garoua,Cameroon,GOU,FKKR,9.33588981628418,13.370100021362305
884,Bafoussam Airport,Bafoussam,Cameroon,BFX,FKKU,5.536920070650001,10.3545999527
885,Bamenda Airport,Bamenda,Cameroon,BPC,FKKV,6.0392398834228525,10.122599601745604
886,Yaoundé Airport,Yaounde,Cameroon,YAO,FKKY,3.8360400199890137,11.523500442504885
887,Kasompe Airport,Kasompe,Zambia,\N,FLKE,-12.572799682617,27.893899917603
888,Livingstone Airport,Livingstone,Zambia,LVI,FLLI,-17.821800231933594,25.82270050048828
889,Kenneth Kaunda International Airport Lusaka,Lusaka,Zambia,LUN,FLLS,-15.330800056500001,28.4526004791
890,Mfuwe Airport,Mfuwe,Zambia,MFU,FLMF,-13.258899688720705,31.93659973144531
891,Mongu Airport,Mongu,Zambia,\N,FLMG,-15.25450038909912,23.16230010986328
892,Simon Mwansa Kapwepwe International Airport,Ndola,Zambia,NLA,FLND,-12.998100280762,28.66489982605
893,Southdowns Airport,Southdowns,Zambia,KIW,FLSO,-12.900500297546387,28.14990043640137
894,Prince Said Ibrahim International Airport,Moroni,Comoros,HAH,FMCH,-11.5337,43.2719
895,Mohéli Bandar Es Eslam Airport,Moheli,Comoros,NWA,FMCI,-12.298100471496582,43.76639938354492
896,Ouani Airport,Anjouan,Comoros,AJN,FMCV,-12.131699562072756,44.43030166625977
897,Dzaoudzi Pamandzi International Airport,Dzaoudzi,Mayotte,DZA,FMCZ,-12.804699897766113,45.28110122680664
898,Roland Garros Airport,St.-denis,Reunion,RUN,FMEE,-20.88710021972656,55.51029968261719
899,Pierrefonds Airport,St.-pierre,Reunion,ZSE,FMEP,-21.320899963378906,55.42499923706055
900,Ivato Airport,Antananarivo,Madagascar,TNR,FMMI,-18.7968997955,47.478801727299995
901,Miandrivazo Airport,Miandrivazo,Madagascar,ZVA,FMMN,-19.56279945373535,45.45080184936523
902,Sainte Marie Airport,Sainte Marie,Madagascar,SMS,FMMS,-17.093900680541992,49.81579971313477
903,Toamasina Airport,Toamasina,Madagascar,TMM,FMMT,-18.109500885009766,49.39250183105469
904,Morondava Airport,Morondava,Madagascar,MOQ,FMMV,-20.28470039367676,44.31760025024414
905,Arrachart Airport,Antsiranana,Madagascar,DIE,FMNA,-12.34939956665039,49.29169845581055
906,Mananara Nord Airport,Mananara,Madagascar,WMR,FMNC,-16.16390037536621,49.77379989624024
907,Andapa Airport,Andapa,Madagascar,ZWA,FMND,-14.651700019836426,49.62060165405274
908,Ambilobe Airport,Ambilobe,Madagascar,AMB,FMNE,-13.188400268554688,48.987998962402344
909,Antsirabato Airport,Antalaha,Madagascar,ANM,FMNH,-14.99940013885498,50.3202018737793
910,Analalava Airport,Analalava,Madagascar,HVA,FMNL,-14.62969970703125,47.76380157470703
911,Amborovy Airport,Mahajanga,Madagascar,MJN,FMNM,-15.6668417421,46.351232528699995
912,Fascene Airport,Nosy-be,Madagascar,NOS,FMNN,-13.3121004105,48.3148002625
913,Besalampy Airport,Besalampy,Madagascar,BPY,FMNQ,-16.744530296500002,44.4824838638
914,Maroantsetra Airport,Maroantsetra,Madagascar,WMN,FMNR,-15.436699867248535,49.68830108642578
915,Sambava Airport,Sambava,Madagascar,SVB,FMNS,-14.278599739074707,50.17470169067383
916,Vohimarina Airport,Vohemar,Madagascar,VOH,FMNV,-13.375800132751465,50.00279998779297
917,Ambalabe Airport,Antsohihy,Madagascar,WAI,FMNW,-14.898799896240234,47.99390029907226
918,Ampampamena Airport,Ampampamena,Madagascar,IVA,FMNZ,-13.484816,48.632702
919,Tôlanaro Airport,Tolagnaro,Madagascar,FTU,FMSD,-25.03809928894043,46.95610046386719
920,Fianarantsoa Airport,Fianarantsoa,Madagascar,WFI,FMSF,-21.441600799560547,47.11169815063477
921,Farafangana Airport,Farafangana,Madagascar,RVA,FMSG,-22.80529975891113,47.82059860229492
922,Manakara Airport,Manakara,Madagascar,WVK,FMSK,-22.119699478149414,48.02170181274414
923,Mananjary Airport,Mananjary,Madagascar,MNJ,FMSM,-21.201799392700195,48.358299255371094
924,Morombe Airport,Morombe,Madagascar,MXM,FMSR,-21.7539005279541,43.3754997253418
925,Toliara Airport,Toliara,Madagascar,TLE,FMST,-23.383399963378906,43.72850036621094
926,Mbanza Congo Airport,M'banza-congo,Angola,SSY,FNBC,-6.269899845123291,14.246999740600586
927,Benguela Airport,Benguela,Angola,BUG,FNBG,-12.609000206,13.403699874900001
928,Cabinda Airport,Cabinda,Angola,CAB,FNCA,-5.59699010848999,12.188400268554688
929,Nova Lisboa Airport,Huambo,Angola,NOV,FNHU,-12.808899879455565,15.760499954223633
930,Kuito Airport,Kuito,Angola,SVP,FNKU,-12.404600143433,16.947399139404
931,Lobito Airport,Lobito,Angola,\N,FNLB,-12.37119960784912,13.536600112915039
932,Quatro de Fevereiro Airport,Luanda,Angola,LAD,FNLU,-8.85836982727,13.231200218199996
933,Malanje Airport,Malanje,Angola,MEG,FNMA,-9.525090217590332,16.312400817871097
934,Menongue Airport,Menongue,Angola,SPP,FNME,-14.657600402832033,17.71980094909668
935,Negage Airport,Negage,Angola,GXG,FNNG,-7.754509925842285,15.287699699401855
936,Porto Amboim Airport,Porto Amboim,Angola,PBN,FNPA,-10.722000122070312,13.76550006866455
937,Saurimo Airport,Saurimo,Angola,VHC,FNSA,-9.689069747924805,20.431900024414066
938,Soyo Airport,Soyo,Angola,SZA,FNSO,-6.141089916229247,12.371800422668455
939,Lubango Airport,Lubango,Angola,SDD,FNUB,-14.924699783325195,13.574999809265135
940,Luena Airport,Luena,Angola,LUO,FNUE,-11.768099784851074,19.8976993560791
941,Uige Airport,Uige,Angola,UGO,FNUG,-7.60306978225708,15.027799606323242
942,Xangongo Airport,Xangongo,Angola,XGN,FNXA,-16.755399703979492,14.965299606323242
943,Oyem Airport,Oyem,Gabon,OYE,FOGO,1.5431100130081177,11.581399917602539
944,Okondja Airport,Okondja,Gabon,OKN,FOGQ,-0.6652140021324158,13.673100471496582
945,Lambarene Airport,Lambarene,Gabon,LBQ,FOGR,-0.7043889760971069,10.245699882507324
946,Bitam Airport,Bitam,Gabon,BMM,FOOB,2.0756399631500244,11.493200302124025
947,Port Gentil Airport,Port Gentil,Gabon,POG,FOOG,-0.7117390036582947,8.754380226135254
948,Omboue Hopital Airport,Omboue Hospial,Gabon,OMB,FOOH,-1.5747300386428833,9.262689590454102
949,Makokou Airport,Makokou,Gabon,MKU,FOOK,0.5792109966278076,12.890899658203125
950,Libreville Leon M'ba International Airport,Libreville,Gabon,LBV,FOOL,0.45860001444799997,9.4122800827
951,M'Vengue El Hadj Omar Bongo Ondimba International Airport,Franceville,Gabon,MVB,FOON,-1.6561599969863892,13.437999725341795
952,Principe Airport,Principe,Sao Tome and Principe,PCP,FPPR,1.6629400253295898,7.411739826202393
953,São Tomé International Airport,Sao Tome,Sao Tome and Principe,TMS,FPST,0.3781749904155731,6.712150096893311
954,Beira Airport,Beira,Mozambique,BEW,FQBR,-19.79640007019043,34.90760040283203
955,Inhambane Airport,Inhambane,Mozambique,INH,FQIN,-23.876399993896484,35.40850067138672
956,Lichinga Airport,Lichinga,Mozambique,VXC,FQLC,-13.27400016784668,35.266300201416016
957,Lumbo Airport,Lumbo,Mozambique,\N,FQLU,-15.0331001282,40.671699523899996
958,Maputo Airport,Maputo,Mozambique,MPM,FQMA,-25.92079925537109,32.57260131835937
959,Mueda Airport,Mueda,Mozambique,\N,FQMD,-11.672900199890135,39.5630989074707
960,Mocímboa da Praia Airport,Mocimboa Da Praia,Mozambique,MZB,FQMP,-11.36180019378662,40.35490036010742
961,Marrupa Airport,Marrupa,Mozambique,\N,FQMR,-13.225099563598633,37.552101135253906
962,Nacala Airport,Nacala,Mozambique,MNC,FQNC,-14.488200187683105,40.71220016479492
963,Nampula Airport,Nampula,Mozambique,APL,FQNP,-15.105600357055664,39.28179931640625
964,Pemba Airport,Pemba,Mozambique,POL,FQPB,-12.991762161254885,40.52401351928711
965,Quelimane Airport,Quelimane,Mozambique,UEL,FQQL,-17.855499267578125,36.86909866333008
966,Songo Airport,Songo,Mozambique,\N,FQSG,-15.602700233459473,32.77320098876953
967,Chingozi Airport,Tete,Mozambique,TET,FQTT,-16.104799270629886,33.64020156860352
968,Ulongwe Airport,Ulongwe,Mozambique,\N,FQUG,-14.70460033416748,34.352401733398445
969,Vilankulo Airport,Vilankulu,Mozambique,VNX,FQVL,-22.018400192260746,35.31330108642578
970,Alphonse Airport,Alphonse,Seychelles,\N,FSAL,-7.00478,52.7262
971,Desroches Airport,Desroches,Seychelles,DES,FSDR,-5.6967,53.6558
972,Farquhar Airport,Farquhar,Seychelles,\N,FSFA,-10.1096,51.176102
973,Seychelles International Airport,Mahe,Seychelles,SEZ,FSIA,-4.674339771270752,55.52180099487305
974,Praslin Airport,Praslin,Seychelles,PRI,FSPP,-4.3192901611328125,55.69139862060547
975,Coetivy Airport,Coetivy,Seychelles,\N,FSSC,-7.13457,56.278197999999996
976,Abeche Airport,Abeche,Chad,AEH,FTTC,13.847000122070312,20.84429931640625
977,Moundou Airport,Moundou,Chad,MQQ,FTTD,8.624409675598145,16.071399688720707
978,N'Djamena International Airport,N'djamena,Chad,NDJ,FTTJ,12.133700370788574,15.034000396728516
979,Faya Largeau Airport,Faya-largeau,Chad,FYT,FTTY,17.91710090637207,19.111099243164066
980,Joshua Mqabuko Nkomo International Airport,Bulawayo,Zimbabwe,BUQ,FVBU,-20.01740074157715,28.617900848388672
981,Charles Prince Airport,Harare,Zimbabwe,\N,FVCP,-17.75160026550293,30.924699783325195
982,Buffalo Range Airport,Chiredzi,Zimbabwe,BFO,FVCZ,-21.008100509643555,31.57859992980957
983,Victoria Falls International Airport,Victoria Falls,Zimbabwe,VFA,FVFA,-18.09589958190918,25.839000701904297
984,Harare International Airport,Harare,Zimbabwe,HRE,FVHA,-17.931800842285156,31.09280014038086
985,Kariba International Airport,Kariba,Zimbabwe,KAB,FVKB,-16.519800186157227,28.88500022888184
986,Mutoko Airport,Mutoko,Zimbabwe,\N,FVMT,-17.431900024414062,32.18450164794922
987,Mutare Airport,Mutare,Zimbabwe,\N,FVMU,-18.997499465942,32.627201080321996
988,Masvingo International Airport,Masvingo,Zimbabwe,MVZ,FVMV,-20.055299758911133,30.859100341796875
989,Zvishavane Airport,Zvishavane,Zimbabwe,\N,FVSH,-20.289499282836914,30.08819961547852
990,Thornhill Air Base,Gwert,Zimbabwe,GWE,FVTL,-19.436399459838867,29.861900329589844
991,Hwange National Park Airport,Hwange National Park,Zimbabwe,WKM,FVWN,-18.62989997863769,27.020999908447266
992,Chileka International Airport,Blantyre,Malawi,BLZ,FWCL,-15.679100036621096,34.9739990234375
993,Karonga Airport,Karonga,Malawi,KGJ,FWKA,-9.953570365905762,33.893001556396484
994,Kasungu Airport,Kasungu,Malawi,\N,FWKG,-13.014599800109865,33.46860122680664
995,Lilongwe International Airport,Lilongwe,Malawi,LLW,FWKI,-13.7894001007,33.78099823
996,Mzuzu Airport,Mzuzu,Malawi,ZZU,FWUU,-11.444700241088867,34.01179885864258
997,Moshoeshoe I International Airport,Maseru,Lesotho,MSU,FXMM,-29.462299346923828,27.552499771118164
998,Mejametalana Airbase,Maseru,Lesotho,\N,FXMU,-29.30410003662109,27.50349998474121
999,Ndjili International Airport,Kinshasa,Congo (Kinshasa),FIH,FZAA,-4.38574981689,15.4446001053
1000,Ndolo Airport,Kinshasa,Congo (Kinshasa),NLO,FZAB,-4.32666015625,15.327500343322999
1001,Muanda Airport,Muanda,Congo (Kinshasa),MNB,FZAG,-5.9308600425720215,12.351799964904785
1002,Kitona Base Airport,Kitona Base,Congo (Kinshasa),\N,FZAI,-5.918059825897218,12.447699546813965
1003,Bandundu Airport,Bandoundu,Congo (Kinshasa),FDU,FZBO,-3.3113200664520264,17.38170051574707
1004,Kikwit Airport,Kikwit,Congo (Kinshasa),KKW,FZCA,-5.0357699394226065,18.785600662231445
1005,Mbandaka Airport,Mbandaka,Congo (Kinshasa),MDK,FZEA,0.0226000007242,18.2887001038
1006,Gbadolite Airport,Gbadolite,Congo (Kinshasa),BDT,FZFD,4.2532100677490225,20.975299835205078
1007,Gemena Airport,Gemena,Congo (Kinshasa),GMA,FZFK,3.23536992073,19.7712993622
1008,Kotakoli Airport,Kotakoli,Congo (Kinshasa),\N,FZFP,4.157639980316162,21.65089988708496
1009,Lisala Airport,Lisala,Congo (Kinshasa),LIQ,FZGA,2.1706600189208984,21.49690055847168
1010,Bangoka International Airport,Kisangani,Congo (Kinshasa),FKI,FZIC,0.48163899779299996,25.337999343899998
1011,Matari Airport,Isiro,Congo (Kinshasa),IRP,FZJH,2.8276100158691406,27.58830070495605
1012,Bunia Airport,Bunia,Congo (Kinshasa),BUX,FZKA,1.5657199621200562,30.220800399780273
1013,Buta Zega Airport,Buta Zega,Congo (Kinshasa),\N,FZKJ,2.818350076675415,24.79369926452637
1014,Bukavu Kavumu Airport,Bukavu/kavumu,Congo (Kinshasa),BKY,FZMA,-2.3089799880981445,28.808799743652344
1015,Goma International Airport,Goma,Congo (Kinshasa),GOM,FZNA,-1.670809984207153,29.23850059509277
1016,Kindu Airport,Kindu,Congo (Kinshasa),KND,FZOA,-2.91917991638,25.9153995514
1017,Lubumbashi International Airport,Lubumashi,Congo (Kinshasa),FBM,FZQA,-11.5913000107,27.5308990479
1018,Kolwezi Airport,Kolwezi,Congo (Kinshasa),KWZ,FZQM,-10.765899658203123,25.505699157714844
1019,Kalemie Airport,Kalemie,Congo (Kinshasa),FMI,FZRF,-5.8755598068237305,29.25
1020,Kamina Base Airport,Kamina Base,Congo (Kinshasa),KMN,FZSA,-8.642020225524902,25.252899169921875
1021,Kananga Airport,Kananga,Congo (Kinshasa),KGA,FZUA,-5.90005016327,22.4692001343
1022,Mbuji Mayi Airport,Mbuji-mayi,Congo (Kinshasa),MJM,FZWA,-6.121240139010001,23.5690002441
1023,Senou Airport,Bamako,Mali,BKO,GABS,12.533499717712402,-7.949940204620361
1024,Gao Airport,Gao,Mali,GAQ,GAGO,16.24839973449707,-0.005456000100821257
1025,Kayes Dag Dag Airport,Kayes,Mali,KYS,GAKY,14.481200218200685,-11.404399871826172
1026,Mopti Airport,Mopti,Mali,MZI,GAMB,14.5128002167,-4.07955980301
1027,Timbuktu Airport,Tombouctou,Mali,TOM,GATB,16.730499267578125,-3.0075800418853764
1028,Tessalit Airport,Tessalit,Mali,\N,GATS,20.243000030517575,0.9773079752922058
1029,Banjul International Airport,Banjul,Gambia,BJL,GBYD,13.338000297546387,-16.65220069885254
1030,Fuerteventura Airport,Fuerteventura,Spain,FUE,GCFV,28.452699661254886,-13.863800048828125
1031,Hierro Airport,Hierro,Spain,VDE,GCHI,27.814800262451172,-17.887100219726562
1032,La Palma Airport,Santa Cruz De La Palma,Spain,SPC,GCLA,28.62649917602539,-17.755599975585938
1033,Gran Canaria Airport,Gran Canaria,Spain,LPA,GCLP,27.931900024414066,-15.38659954071045
1034,Lanzarote Airport,Arrecife,Spain,ACE,GCRR,28.945499420166016,-13.605199813842773
1035,Tenerife South Airport,Tenerife,Spain,TFS,GCTS,28.044500351,-16.5725002289
1036,Tenerife Norte Airport,Tenerife,Spain,TFN,GCXO,28.4827003479,-16.341499328599998
1037,Melilla Airport,Melilla,Spain,MLN,GEML,35.279800415,-2.9562599658999997
1038,Lungi International Airport,Freetown,Sierra Leone,FNA,GFLL,8.616439819335938,-13.195500373840332
1039,Cufar Airport,Cufar,Guinea-Bissau,\N,GGCF,11.2878999710083,-15.180500030517578
1040,Spriggs Payne Airport,Monrovia,Liberia,MLW,GLMR,6.289060115814209,-10.758700370788574
1041,Roberts International Airport,Monrovia,Liberia,ROB,GLRB,6.233789920806885,-10.362299919128418
1042,Al Massira Airport,Agadir,Morocco,AGA,GMAD,30.32500076293945,-9.41306972503662
1043,Tan Tan Airport,Tan Tan,Morocco,TTA,GMAT,28.448200225830078,-11.161299705505373
1044,Saïss Airport,Fes,Morocco,FEZ,GMFF,33.927299499499995,-4.977960109709999
1045,Ifrane Airport,Ifrane,Morocco,\N,GMFI,33.505298614501946,-5.152900218963623
1046,Moulay Ali Cherif Airport,Er-rachidia,Morocco,ERH,GMFK,31.947500228899997,-4.39833021164
1047,Bassatine Airport,Meknes,Morocco,MEK,GMFM,33.879100799560554,-5.515120029449463
1048,Angads Airport,Oujda,Morocco,OUD,GMFO,34.78720092773437,-1.92399001121521
1049,Ben Slimane Airport,Ben Slimane,Morocco,\N,GMMB,33.6553993225,-7.221449851990001
1050,Rabat-Salé Airport,Rabat,Morocco,RBA,GMME,34.051498413085945,-6.7515201568603525
1051,Mohammed V International Airport,Casablanca,Morocco,CMN,GMMN,33.36750030517578,-7.589970111846924
1052,Menara Airport,Marrakech,Morocco,RAK,GMMX,31.6068992615,-8.036299705510002
1053,Kenitra Airport,Kentira,Morocco,NNA,GMMY,34.298900604248054,-6.5958800315856925
1054,Ouarzazate Airport,Ouarzazate,Morocco,OZZ,GMMZ,30.939100265500002,-6.909430027010001
1055,Cherif Al Idrissi Airport,Al Hociema,Morocco,AHU,GMTA,35.177101135253906,-3.83951997756958
1056,Saniat R'mel Airport,Tetouan,Morocco,TTU,GMTN,35.594299316406,-5.320020198822
1057,Ibn Batouta Airport,Tanger,Morocco,TNG,GMTT,35.726898193400004,-5.916890144349999
1058,Ziguinchor Airport,Ziguinchor,Senegal,ZIG,GOGG,12.5556,-16.281799
1059,Cap Skirring Airport,Cap Skiring,Senegal,CSK,GOGS,12.410200119018555,-16.746099472045902
1060,Kaolack Airport,Kaolack,Senegal,KLC,GOOK,14.146900177001953,-16.051300048828125
1061,Léopold Sédar Senghor International Airport,Dakar,Senegal,DKR,GOOY,14.739700317382812,-17.49020004272461
1062,Saint Louis Airport,St. Louis,Senegal,XLS,GOSS,16.050800323486328,-16.463199615478516
1063,Bakel Airport,Bakel,Senegal,BXE,GOTB,14.847299575805664,-12.468299865722654
1064,Kédougou Airport,Kedougou,Senegal,KGG,GOTK,12.57229995727539,-12.22029972076416
1065,Tambacounda Airport,Tambacounda,Senegal,TUD,GOTT,13.73680019378662,-13.65310001373291
1066,Aioun el Atrouss Airport,Aioun El Atrouss,Mauritania,IEO,GQNA,16.711299896240234,-9.637880325317383
1067,Tidjikja Airport,Tidjikja,Mauritania,TIY,GQND,18.57010078430176,-11.423500061035154
1068,Kiffa Airport,Kiffa,Mauritania,KFA,GQNF,16.59000015258789,-11.406200408935547
1069,Néma Airport,Nema,Mauritania,EMN,GQNI,16.621999740600586,-7.3165998458862305
1070,Kaédi Airport,Kaedi,Mauritania,KED,GQNK,16.159500122070312,-13.50759983062744
1071,Nouakchott International Airport,Nouakschott,Mauritania,NKC,GQNN,18.09819984436035,-15.94849967956543
1072,Sélibaby Airport,Selibabi,Mauritania,SEY,GQNS,15.179699897766113,-12.207300186157227
1073,Atar International Airport,Atar,Mauritania,ATR,GQPA,20.506799697875977,-13.04319953918457
1074,Nouadhibou International Airport,Nouadhibou,Mauritania,NDB,GQPP,20.9330997467041,-17.030000686645508
1075,Bir Moghrein Airport,Bir Moghrein,Mauritania,\N,GQPT,25.2367000579834,-11.588700294494627
1076,Fria Airport,Fira,Guinea,FIG,GUFA,10.350600242615,-13.569199562072999
1077,Faranah Airport,Faranah,Guinea,FAA,GUFH,10.0354995728,-10.7698001862
1078,Tata Airport,Labe,Guinea,LEK,GULB,11.326100349426,-12.286800384521001
1079,Amílcar Cabral International Airport,Amilcar Cabral,Cape Verde,SID,GVAC,16.741399765014652,-22.94939994812012
1080,Rabil Airport,Boa Vista,Cape Verde,BVC,GVBA,16.136499404907227,-22.888900756835934
1081,Maio Airport,Maio,Cape Verde,MMO,GVMA,15.15590000152588,-23.21369934082031
1082,Preguiça Airport,Sao Nocolau Island,Cape Verde,SNE,GVSN,16.58839988708496,-24.28470039367676
1083,São Pedro Airport,Sao Vicente Island,Cape Verde,VXE,GVSV,16.833200454711914,-25.05529975891113
1084,Addis Ababa Bole International Airport,Addis Ababa,Ethiopia,ADD,HAAB,8.97789001465,38.7993011475
1085,Lideta Army Airport,Addis Ababa,Ethiopia,\N,HAAL,9.003685,38.725497999999995
1086,Arba Minch Airport,Arba Minch,Ethiopia,AMH,HAAM,6.0393900871276855,37.59049987792969
1087,Axum Airport,Axum,Ethiopia,AXU,HAAX,14.14680004119873,38.77280044555664
1088,Bahir Dar Airport,Bahar Dar,Ethiopia,BJR,HABD,11.608099937438965,37.32160186767578
1089,Aba Tenna Dejazmach Yilma International Airport,Dire Dawa,Ethiopia,DIR,HADR,9.624699592590332,41.85419845581055
1090,Gambella Airport,Gambella,Ethiopia,GMB,HAGM,8.12876033782959,34.563098907470696
1091,Gonder Airport,Gondar,Ethiopia,GDQ,HAGN,12.51990032196045,37.433998107910156
1092,Jimma Airport,Jimma,Ethiopia,JIM,HAJM,7.66609001159668,36.81660079956055
1093,Lalibella Airport,Lalibella,Ethiopia,LLI,HALL,11.975000381469727,38.97999954223633
1094,Mekele Airport,Makale,Ethiopia,MQX,HAMK,13.467399597167967,39.53350067138672
1095,Asosa Airport,Asosa,Ethiopia,ASO,HASO,10.018500328063963,34.586299896240234
1096,Bujumbura International Airport,Bujumbura,Burundi,BJM,HBBA,-3.3240199089050293,29.318500518798828
1097,Egal International Airport,Hargeisa,Somalia,HGA,HCMH,9.518170356750488,44.08879852294922
1098,Berbera Airport,Berbera,Somalia,BBO,HCMI,10.389200210571287,44.94110107421875
1099,Kisimayu Airport,Kismayu,Somalia,KMU,HCMK,-0.3773530125617981,42.45920181274414
1100,El Nouzha Airport,Alexandria,Egypt,ALY,HEAX,31.183900833129886,29.94890022277832
1101,Abu Simbel Airport,Abu Simbel,Egypt,ABS,HEBL,22.3759994507,31.611700058
1102,Cairo International Airport,Cairo,Egypt,CAI,HECA,30.12190055847168,31.40559959411621
1103,Cairo West Airport,Cairo,Egypt,\N,HECW,30.116399765,30.9153995514
1104,Hurghada International Airport,Hurghada,Egypt,HRG,HEGN,27.178300857543945,33.799400329589844
1105,El Gora Airport,El Gorah,Egypt,EGR,HEGR,31.068559000000004,34.129629
1106,Luxor International Airport,Luxor,Egypt,LXR,HELX,25.670999527,32.7066001892
1107,Mersa Matruh Airport,Mersa-matruh,Egypt,MUH,HEMM,31.325399398800002,27.2217006683
1108,Port Said Airport,Port Said,Egypt,PSD,HEPS,31.279399871826172,32.240001678466804
1109,St Catherine International Airport,St. Catherine,Egypt,SKV,HESC,28.685300827,34.0625
1110,Aswan International Airport,Aswan,Egypt,ASW,HESN,23.964399337800003,32.8199996948
1111,El Tor Airport,El-tor,Egypt,ELT,HETR,28.208999633789066,33.64550018310547
1112,Eldoret International Airport,Eldoret,Kenya,EDL,HKEL,0.4044579863548279,35.23889923095703
1113,Kakamega Airport,Kakamega,Kenya,\N,HKKG,0.271342009306,34.787300109899995
1114,Kisumu Airport,Kisumu,Kenya,KIS,HKKI,-0.0861390009522438,34.72890090942383
1115,Kitale Airport,Kitale,Kenya,KTL,HKKT,0.9719889760017396,34.95859909057617
1116,Lodwar Airport,Lodwar,Kenya,LOK,HKLO,3.1219699382781982,35.608699798583984
1117,Manda Airstrip,Lamu,Kenya,LAU,HKLU,-2.252419948577881,40.91310119628906
1118,Mombasa Moi International Airport,Mombasa,Kenya,MBA,HKMO,-4.034830093383788,39.594200134277344
1119,Naivasha Airport,Naivasha,Kenya,\N,HKNV,-0.7879530191421509,36.43349838256836
1120,Nairobi Wilson Airport,Nairobi,Kenya,WIL,HKNW,-1.3217200040817259,36.81480026245117
1121,Moi Air Base,Nairobi,Kenya,\N,HKRE,-1.27726995945,36.8623008728
1122,Wajir Airport,Wajir,Kenya,WJR,HKWJ,1.7332400083541868,40.09159851074219
1123,Bu Attifel Airport,Buattifel,Libya,\N,HLFL,28.79540061950684,22.080900192260746
1124,Warehouse 59e Airport,Giallo,Libya,\N,HLGL,28.63850021362305,21.4379997253418
1125,Ghat Airport,Ghat,Libya,GHT,HLGT,25.1455993652,10.142600059500001
1126,Kufra Airport,Kufra,Libya,AKF,HLKF,24.178699493408203,23.31399917602539
1127,Benina International Airport,Benghazi,Libya,BEN,HLLB,32.096801757799994,20.2695007324
1128,Sabha Airport,Sebha,Libya,SEB,HLLS,26.98699951171875,14.47249984741211
1129,Tripoli International Airport,Tripoli,Libya,TIP,HLLT,32.6635017395,13.159000396700002
1130,Marsa Brega Airport,Marsa Brega,Libya,\N,HLMB,30.37809944152832,19.576400756835934
1131,Ras Lanuf Oil Airport,Ras Lanouf V 40,Libya,\N,HLNF,30.5,18.52720069885254
1132,Hon Airport,Hon,Libya,\N,HLON,29.11009979248047,15.96560001373291
1133,Dahra Airport,Dahra,Libya,\N,HLRA,29.47260093688965,17.934900283813477
1134,Ghadames East Airport,Ghadames,Libya,LTD,HLTD,30.15169906616211,9.715310096740724
1135,Zella 74 Airport,Zella 74,Libya,\N,HLZA,28.58989906311035,17.293899536132812
1136,Gisenyi Airport,Gisenyi,Rwanda,GYI,HRYG,-1.6771999597549438,29.258899688720703
1137,Kigali International Airport,Kigali,Rwanda,KGL,HRYR,-1.96862995625,30.139499664299997
1138,Kamembe Airport,Kamembe,Rwanda,KME,HRZA,-2.462239980697632,28.907899856567386
1139,Dongola Airport,Dongola,Sudan,DOG,HSDN,19.1539001465,30.4300994873
1140,Damazin Airport,Damazin,Sudan,\N,HSDZ,11.785900115999999,34.3367004395
1141,El Fasher Airport,El Fasher,Sudan,ELF,HSFS,13.61489963531494,25.32460021972656
1142,Kassala Airport,Kassala,Sudan,KSL,HSKA,15.387499809265135,36.328800201416016
1143,Kadugli Airport,Kadugli,Sudan,\N,HSLI,11.137999534600002,29.7010993958
1144,El Obeid Airport,El Obeid,Sudan,EBD,HSOB,13.153200149536133,30.23270034790039
1145,Juba International Airport,Juba,South Sudan,JUB,HSSJ,4.87201023102,31.601100921599997
1146,Malakal Airport,Malakal,Sudan,MAK,HSSM,9.55897045135498,31.65220069885254
1147,Khartoum International Airport,Khartoum,Sudan,KRT,HSSS,15.589500427246096,32.55319976806641
1148,Arusha Airport,Arusha,Tanzania,ARK,HTAR,-3.3677899837493896,36.63330078125
1149,Julius Nyerere International Airport,Dar Es Salaam,Tanzania,DAR,HTDA,-6.87810993195,39.202598571799996
1150,Dodoma Airport,Dodoma,Tanzania,DOD,HTDO,-6.170440196990968,35.752601623535156
1151,Iringa Airport,Iringa,Tanzania,IRI,HTIR,-7.668630123138428,35.75210189819336
1152,Kilimanjaro International Airport,Kilimanjaro,Tanzania,JRO,HTKJ,-3.42940998077,37.0745010376
1153,Lake Manyara Airport,Lake Manyara,Tanzania,LKY,HTLM,-3.376310110092163,35.81829833984375
