,total_departure,total_arrival,departure_distance_avg,arrival_distance_avg,departure_taxi_avg,arrival_taxi_avg,city_name,code4,latitude,longitude,altitude_ft,city_id,fips,population,temp_avg,pcp_avg,strike_avg,damage_avg,enplanements,length_ft_sum,width_ft_avg,runway_count,security_avg
ABE,4168.0,4165.0,619.5734165067179,619.5183673469388,15.095051445369917,5.037680450207977,allentown,KABE,40.652099609375,-75.44080352783203,393.0,10988,42077,682899,51.90248962655603,4.16103734439834,5.25,0.16666666666666666,376468.0,13397.0,150.0,2.0,2.45
ABI,2022.0,2022.0,158.0,158.0,13.50630994447249,3.7473471450227387,abilene,KABI,32.4113006592,-99.68190002440001,1791.0,5333,48441,114964,64.4887966804979,2.1314107883817432,0.75,0.08333333333333333,77229.0,18078.0,133.33333333333334,3.0,1.4166666666666667
ABQ,24047.0,24048.0,678.4904561899614,678.5864520958083,12.688534229315414,5.385894206549119,albuquerque,KABQ,35.04019927978516,-106.60900115966795,5355.0,3742,35001,758523,54.316597510373434,0.9284647302904563,6.833333333333333,0.25,2647269.0,39793.0,150.0,4.0,2.9743589743589745
ABY,1018.0,1018.0,145.0,145.0,15.779543197616682,3.673286991062562,albany,KABY,31.535499572753906,-84.19450378417969,197.0,17309,13095,90515,66.57800829875518,4.069336099585061,0.4166666666666667,0.08333333333333333,39422.0,11801.0,150.0,2.0,1.5833333333333333
ACK,972.0,972.0,222.88168724279836,222.88168724279836,15.843116328708645,6.231914893617021,nantucket,KACK,41.25310135,-70.06020355,47.0,19193,25019,201,50.79336099585066,3.7031950207468856,0.5833333333333334,0.08333333333333333,126610.0,12999.0,100.0,3.0,1.5
ACT,1593.0,1594.0,89.0,89.0,13.121903520208605,3.681375730045425,waco,KACT,31.61129951477051,-97.23049926757812,516.0,5814,48309,188448,66.86224066390038,3.144439834024898,0.6666666666666666,0.08333333333333333,57344.0,12492.0,150.0,2.0,2.5789473684210527
ACV,1478.0,1479.0,296.01894451962113,295.8972278566599,13.306508047585725,6.072027972027972,arcata,KACV,40.97809982299805,-124.10900115966795,221.0,13722,6023,33806,54.50331950207469,5.060331950207463,0.0,0.0,69575.0,10499.0,150.0,2.0,6.105263157894737
ACY,3288.0,3288.0,871.1654501216545,871.1149635036496,11.416564039408867,5.0344827586206895,atlantic,KACY,39.45759963989258,-74.57720184326172,75.0,3361,34001,241363,55.071369294605844,3.9609958506224077,5.833333333333333,0.16666666666666666,568958.0,16144.0,150.0,2.0,8.857142857142858
AEX,3403.0,3402.0,340.11166617690276,340.15579071134624,15.96662693682956,3.6808700834326578,alexandria,KAEX,31.32740020751953,-92.54979705810548,89.0,6089,22079,82131,67.01203319502072,4.88053941908714,0.25,0.0,143173.0,16353.0,150.0,2.0,2.730769230769231
AGS,4544.0,4541.0,147.70532570422534,147.73926447918961,16.656116722783388,4.88009861048857,bush,KAGS,33.36989974975586,-81.9645004272461,144.0,15688,17199,270,56.445643153526916,4.122946058091284,0.0,0.0,300598.0,14002.0,112.5,2.0,3.125
ALB,12360.0,12359.0,675.557928802589,675.3573913747067,13.706208150781185,3.8473736372646186,albany,KALB,42.74829864501953,-73.80169677734375,285.0,8899,36001,597270,47.81535269709543,3.6017842323651448,0.0,0.0,1440674.0,14400.0,150.0,2.0,5.666666666666667
ALO,677.0,677.0,234.0,234.0,15.28702290076336,4.211567732115677,waterloo,KALO,42.55709838867188,-92.40029907226562,873.0,18224,19013,112060,47.42572614107886,3.0903734439834007,0.0,0.0,23892.0,19805.0,143.0,3.0,2.875
AMA,5366.0,5367.0,400.85780842340665,400.8952860070803,13.230286908607258,4.5076864680204975,amarillo,KAMA,35.219398498535156,-101.70600128173828,3607.0,4497,48375,206072,58.77593360995856,1.5346473029045629,1.5833333333333333,0.5833333333333334,355705.0,21403.0,225.0,2.0,1.7142857142857142
APN,622.0,622.0,144.14308681672026,144.28456591639872,17.008223684210527,5.10016694490818,alpena,KAPN,45.07809829999999,-83.56030273,690.0,24877,26007,13597,44.502904564315386,2.616348547717842,0.0,0.0,11614.0,14032.0,125.0,2.0,11.941176470588236
ASE,6854.0,6861.0,536.0018967026554,535.7007724821455,17.82940533791166,3.859426422190879,aspen,KASE,39.22320175,-106.8690033,7820.0,12534,8097,8521,38.47510373443983,2.3790041493775944,0.0,0.0,285448.0,7006.0,100.0,1.0,7.315789473684211
ATL,390046.0,390079.0,646.8699102157182,646.9670400098441,16.952014161447728,8.718965668536978,atlanta,KATL,33.63669967651367,-84.4281005859375,1026.0,17464,13121,5228750,61.60871369294608,4.298174273858921,0.0,0.0,51865797.0,48891.0,150.0,5.0,11.328358208955224
ATW,4188.0,4189.0,427.0241165234002,426.94509429458105,17.786250302590172,4.968795355587808,appleton,KATW,44.258098602299995,-88.51909637450001,918.0,909,55087,222222,45.23568464730289,2.8375933609958515,0.0,0.0,348026.0,14503.0,150.0,2.0,2.0
AUS,63262.0,63261.0,922.733536720306,922.909122524146,13.635452412494214,6.624790646483659,austin,KAUS,30.194499969482425,-97.6698989868164,542.0,5600,48453,1638716,68.31161825726142,2.9107053941908694,0.0,0.0,7714479.0,21248.0,150.0,2.0,8.852941176470589
AVL,7694.0,7700.0,301.7531842994541,301.79987012987016,17.42845734060961,5.027091633466135,asheville,KAVL,35.43619918823242,-82.54180145263672,2165.0,7074,37021,309250,54.37385892116181,4.1846473029045645,2.3333333333333335,0.3333333333333333,573206.0,8001.0,150.0,1.0,3.85
AVP,3356.0,3357.0,472.7258641239571,472.70390229371463,15.996925914540425,4.434835939895738,scranton,KAVP,41.338500976599995,-75.72339630130001,962.0,10109,42069,389022,47.44315352697097,3.906929460580914,0.0,0.0,258628.0,11801.0,150.0,2.0,4.260869565217392
AZO,2805.0,2806.0,179.95258467023172,180.04027084818247,18.552496328928047,3.7635630498533725,kalamazoo,KAZO,42.234901428222656,-85.5521011352539,874.0,25295,26077,214083,48.94937759336102,3.1860995850622404,0.0,0.0,152845.0,12736.0,103.33333333333333,3.0,5.033333333333333
BDL,28316.0,28314.0,815.9098742760277,815.9172847354665,13.441331694621168,5.357086130965273,windsor,KBDL,41.9388999939,-72.68319702149999,173.0,20036,9003,1315,50.245643153527,4.124149377593362,11.333333333333334,0.5833333333333334,3278035.0,21502.0,150.0,3.0,8.390243902439025
BFF,573.0,573.0,150.0,150.0,16.612280701754386,4.0017543859649125,scottsbluff,KBFF,41.87400055,-103.5960007,3967.0,8027,31157,25662,48.93195020746887,1.2637344398340242,0.0,0.0,14295.0,16280.0,150.0,2.0,1.5
BFL,2324.0,2324.0,505.5989672977625,505.5989672977625,16.67362016514559,4.733420026007803,bakersfield,KBFL,35.43360138,-119.0569992,510.0,13984,6029,574362,62.538589211618245,0.6709958506224067,0.0,0.0,105104.0,14557.0,112.5,2.0,2.066666666666667
BGM,920.0,920.0,378.0,378.0,18.0979097909791,4.0,binghamton,KBGM,42.20869827,-75.97979736,1636.0,9733,36007,6240,46.88672199170124,3.7999170124481316,0.0,0.0,36382.0,12102.0,150.0,2.0,2.7777777777777777
BGR,4090.0,4088.0,532.6364303178484,532.5134540117417,17.511883465371838,5.103050499871828,bangor,KBGR,44.80739974975586,-68.82810211181639,192.0,20141,23019,59107,42.86348547717842,3.7615767634854747,0.25,0.08333333333333333,336410.0,11440.0,200.0,1.0,2.3846153846153846
BHM,18297.0,18295.0,511.4673990271629,510.1398742825909,14.797919100873532,3.6596276743539873,birmingham,KBHM,33.56290054,-86.75350189,650.0,14439,1073,744189,62.74979253112031,4.648755186721991,0.0,0.0,1457562.0,17100.0,150.0,2.0,4.7272727272727275
BIL,4152.0,4150.0,600.9513487475915,601.0397590361446,13.948413659481714,3.9840193704600484,billings,KBIL,45.807701110839844,-108.54299926757812,3652.0,26297,30111,120800,46.68257261410788,1.205103734439834,0.4166666666666667,0.08333333333333333,440263.0,19820.0,100.0,3.0,5.363636363636363
BIS,3667.0,3665.0,580.877556585765,587.4283765347885,16.573802270839103,5.260809312638581,bismarck,KBIS,46.77270126342773,-100.74600219726562,1661.0,7421,38015,97457,41.601244813277994,1.531078838174273,1.9166666666666667,0.25,285198.0,15394.0,125.0,2.0,2.5
BJI,740.0,740.0,199.0,199.0,17.93080054274084,4.681632653061224,bemidji,KBJI,47.50939941,-94.93370056,1391.0,24117,27007,16733,39.19958506224067,2.0044813278008298,0.0,0.0,30081.0,12297.0,150.0,2.0,2.0
BLI,2225.0,2225.0,873.645393258427,881.6188764044944,13.574728260869565,5.86102308736985,bellingham,KBLI,48.79280090332031,-122.53800201416016,170.0,387,53073,126015,44.73360995850623,5.97622406639004,0.6666666666666666,0.0,368186.0,6701.0,150.0,1.0,6.26984126984127
BLV,1019.0,1018.0,881.9528949950932,881.9931237721022,11.461918892185954,6.37314906219151,belleville,KBLV,38.5452,-89.835197,459.0,16264,17163,41649,56.53070539419087,3.59103734439834,0.0,0.0,152278.0,18001.0,150.0,2.0,4.5
BMI,3173.0,3172.0,464.2858493539237,464.3139974779319,14.957819597663855,4.050469103849887,bloomington,KBMI,40.47710037,-88.91590118,871.0,15817,17113,134892,51.485062240663915,3.23381742738589,0.0,0.0,178057.0,18248.0,133.33333333333334,3.0,2.0
BNA,74263.0,74261.0,702.5277998464916,701.8697028049717,14.00429049668648,6.404755401382098,nashville,KBNA,36.1245002746582,-86.6781997680664,599.0,8671,47037,1076645,59.39170124481333,4.35871369294606,30.333333333333332,1.4166666666666667,8017347.0,34734.0,150.0,4.0,12.516129032258064
BOI,19191.0,19189.0,620.4156635923089,620.1697847725259,14.660282574568289,3.9960246887749764,boise,KBOI,43.56439972,-116.22299960000001,2871.0,19916,16001,385218,52.08962655601663,0.9826556016597514,3.25,0.3333333333333333,1943181.0,24763.0,125.0,3.0,4.590909090909091
BOS,148191.0,148180.0,990.5584752110452,990.7875421784316,20.068025325925824,8.073169210728713,boston,KBOS,42.36429977,-71.00520325,20.0,19203,25025,4637537,50.743983402489654,4.0958506224066396,21.25,1.25,20006521.0,42506.0,133.33333333333334,6.0,6.042857142857143
BPT,851.0,851.0,270.0,270.0,14.745721271393643,3.919512195121951,beaumont,KBPT,29.9507999420166,-94.02069854736328,15.0,4714,48245,148954,69.2473029045643,5.117261410788382,0.0,0.0,27694.0,11820.0,150.0,2.0,1.0
BQK,1038.0,1038.0,238.0,238.0,18.268482490272373,3.6264591439688716,brunswick,KBQK,31.2588005065918,-81.46649932861328,26.0,17012,13127,54017,68.08672199170127,3.9560995850622382,0.0,0.0,40443.0,8001.0,150.0,1.0,1.0
BRO,2607.0,2610.0,391.8158803222094,391.61992337164753,13.544338875692794,4.76810447170558,brownsville,KBRO,25.90679931640625,-97.4259033203125,22.0,4201,48061,227883,75.06099585062243,2.07713692946058,0.0,0.0,115711.0,16400.0,125.0,3.0,1.5
BTR,7576.0,7579.0,406.02151531151003,405.9780973743238,14.84579251107234,4.271009248090069,baton,KBTR,30.53319931,-91.14959717,70.0,5942,22033,583613,67.84771784232368,5.18585062240664,0.0,0.0,390107.0,17703.0,125.0,3.0,2.2222222222222223
BTV,9727.0,9729.0,459.2354271615092,459.1085414739439,18.23790667808219,4.946892294593444,burlington,KBTV,44.471900939899996,-73.15329742429998,335.0,15459,50007,108277,44.64688796680498,3.6720331950207483,2.75,0.16666666666666666,658879.0,11931.0,112.5,2.0,2.8627450980392157
BUF,26248.0,26250.0,564.4158412069492,564.4193142857143,14.57297001446499,4.474844853830842,buffalo,KBUF,42.94049835,-78.73220062,728.0,9353,36029,926261,47.76680497925313,3.5270124481327803,0.0,0.0,2523158.0,15263.0,150.0,2.0,21.53061224489796
BUR,26583.0,26587.0,469.17086107662794,469.18178056945123,13.545906846798577,2.802371843917368,burbank,KBUR,34.200698852539055,-118.35900115966795,778.0,13146,6037,104834,62.333195020746885,1.1211203319502068,0.0,0.0,2680240.0,12687.0,150.0,2.0,4.704918032786885
BWI,106739.0,106736.0,806.9129090585446,806.93165380003,14.43267158904818,5.415826965667335,baltimore,KBWI,39.17539978,-76.66829681,146.0,20595,24005,7565,54.895020746887965,4.028962655601658,0.0,0.0,13371816.0,31003.0,150.0,4.0,7.4363636363636365
BZN,5841.0,5843.0,804.4358842663927,804.2387472188944,16.22367515485203,5.314005505849965,bozeman,KBZN,45.77750015,-111.15299990000001,4473.0,26240,30031,53949,40.18630705394191,2.0044398340248963,0.5833333333333334,0.0,670295.0,14850.0,101.66666666666667,3.0,4.186046511627907
CAE,6817.0,6818.0,340.73126008508143,340.6880316808448,15.23553284232677,4.495723930982746,columbia,KCAE,33.93880081176758,-81.11949920654297,236.0,27331,45063,17265,63.66348547717841,3.7660995850622414,0.0,0.0,566660.0,16602.0,150.0,2.0,8.333333333333334
CAK,7510.0,7510.0,416.86631158455396,416.9810918774967,17.19923319183897,5.745084559329025,akron,KCAK,40.916099548339844,-81.44219970703125,1228.0,21498,39153,565920,50.8091286307054,3.382614107883815,0.0,0.0,449731.0,20797.0,150.0,3.0,5.204545454545454
CGI,625.0,625.0,273.4784,273.4784,20.40464344941957,4.910016977928692,cape,KCGI,37.22529983520508,-89.57080078125,342.0,23779,29031,54588,57.129460580912834,4.091244813278006,0.3333333333333333,0.08333333333333333,9160.0,10495.0,125.0,2.0,1.0
CHA,8511.0,8515.0,329.3051345317824,329.52847915443334,16.89212758332338,5.464076509264793,chattanooga,KCHA,35.03530120849609,-85.20379638671875,683.0,8656,47065,407182,59.72282157676348,4.700373443983402,0.0,0.0,504833.0,12400.0,150.0,2.0,1.8888888888888888
CHO,5574.0,5576.0,360.9219590958019,360.9076398852224,16.633283693224126,4.164684014869889,charlottesville,KCHO,38.13859939575195,-78.4529037475586,639.0,12112,51540,102016,56.85684647302905,3.7265145228215775,0.0,0.0,352816.0,6001.0,150.0,1.0,4.454545454545454
CHS,23941.0,23946.0,541.0172925107556,541.0000835212562,14.880999913201979,6.098550097381519,charleston,KCHS,32.89860153,-80.04049683,46.0,27330,45019,616085,66.09377593360998,4.037842323651452,0.0,0.0,2192893.0,16005.0,175.0,2.0,5.375
CID,9232.0,9231.0,501.1151429809359,500.9957751056224,15.883425414364641,6.266357718194858,cedar,KCID,41.88470077514648,-91.71080017089844,869.0,18468,19113,186160,48.239419087136916,3.149709543568465,0.0,0.0,602058.0,14801.0,150.0,2.0,1.95
CIU,673.0,673.0,365.445765230312,365.445765230312,21.949924127465856,4.571212121212121,sault,KCIU,46.25080108642578,-84.47239685058594,800.0,25059,26033,12637,41.41535269709541,2.8538589211618257,0.16666666666666666,0.08333333333333333,23324.0,12201.0,137.5,2.0,8.0
CKB,807.0,807.0,361.3271375464684,361.3271375464684,17.305837563451778,4.198482932996208,clarksburg,KCKB,39.2966003418,-80.2281036377,1217.0,1753,54033,41453,53.1605809128631,4.00244813278008,0.0,0.0,36917.0,7800.0,150.0,1.0,1.0
CLE,48385.0,48389.0,648.9983879301436,649.9315340263283,15.76367587181705,7.052390791027155,cleveland,KCLE,41.411701202399996,-81.8498001099,791.0,22568,39035,1730363,50.91452282157676,3.415311203319501,0.0,0.0,4701713.0,31112.0,150.0,4.0,7.072727272727272
CLL,2312.0,2314.0,128.65397923875432,128.81114952463267,11.138999557326251,4.578366445916115,college,KCLL,30.58860016,-96.36380005,320.0,4239,48041,207308,68.12531120331948,3.5231120331950203,0.0,0.0,79309.0,17308.0,150.0,3.0,4.911764705882353
CLT,233317.0,233309.0,553.3273957748471,553.7202593984802,20.219262862949165,12.292681958360356,charlotte,KCLT,35.2140007019043,-80.94309997558594,748.0,7152,37119,1467362,60.70580912863072,3.598008298755187,30.583333333333332,1.8333333333333333,22281949.0,36178.0,150.0,4.0,17.54022988505747
CMH,45805.0,45808.0,608.8167885602008,608.7954069158226,14.975013930680932,5.911555080404472,columbus,KCMH,39.99800109863281,-82.89189910888672,815.0,21652,39049,1528314,52.86141078838175,3.549502074688795,13.833333333333334,0.6666666666666666,3976620.0,18125.0,150.0,2.0,5.333333333333333
CMX,725.0,728.0,360.0,359.760989010989,18.45072463768116,4.587463556851312,hancock,KCMX,47.16839981079102,-88.48909759521484,1095.0,25076,26061,4560,40.961410788381755,2.562821576763485,0.0,0.0,24041.0,11697.0,125.0,2.0,1.3
COD,822.0,824.0,350.4963503649635,350.0764563106796,18.76231527093596,4.220172201722018,cody,KCOD,44.520198822,-109.024002075,5102.0,2936,56029,9696,39.28838174273861,1.828340248962655,0.4166666666666667,0.0,39407.0,8268.0,100.0,1.0,1.0
COS,10338.0,10335.0,624.1382278970788,615.2686985970005,19.6518540317834,7.271594032194739,colorado,KCOS,38.805801391602,-104.70099639893,6187.0,12487,8041,623946,48.496265560165966,1.2830290456431537,6.916666666666667,0.4166666666666667,845742.0,32792.0,150.0,3.0,7.4375
COU,2225.0,2224.0,438.4211235955056,438.31654676258995,16.39760147601476,3.938220378054403,columbia,KCOU,38.81809997558594,-92.21959686279295,889.0,23891,29019,139945,54.87510373443982,3.5255186721991714,0.5833333333333334,0.08333333333333333,120235.0,12001.0,125.0,2.0,2.0
CPR,985.0,985.0,294.88426395939086,295.0365482233503,15.292260692464358,4.199186991869919,casper,KCPR,42.90800095,-106.4639969,5350.0,3074,56025,67462,44.306639004149396,0.9732780082987553,0.3333333333333333,0.0,86905.0,33023.0,105.0,4.0,2.0
CRP,5562.0,5561.0,259.2047824523553,259.20086315410896,12.850332594235033,4.35959409594096,corpus,KCRP,27.77039909362793,-97.5011978149414,44.0,4868,48355,341435,73.12199170124482,2.347012448132781,2.25,0.16666666666666666,332499.0,13588.0,150.0,2.0,2.2666666666666666
CRW,4632.0,4630.0,343.3894645941278,343.1652267818574,15.051812319323993,3.5878288007133303,charleston,KCRW,38.37310028076172,-81.59320068359375,981.0,1608,54039,142858,55.4112033195021,3.8947302904564305,2.6666666666666665,0.25,216873.0,11053.0,150.0,2.0,1.5
CSG,1277.0,1277.0,83.0,83.0,16.98178939034046,3.319620253164557,columbus,KCSG,32.516300201416016,-84.93890380859375,397.0,17000,13215,259160,64.57385892116183,4.1306639004149375,0.0,0.0,49354.0,10994.0,150.0,2.0,1.6
CVG,49594.0,49590.0,633.3873452433762,634.6237951199839,15.949627862987787,6.0119541551986195,cincinnati,KCVG,39.0488014221,-84.6678009033,896.0,22002,39061,1648254,54.45892116182573,3.784937759336102,25.166666666666668,1.4166666666666667,4269258.0,41000.0,150.0,4.0,2.085714285714286
CWA,2853.0,2854.0,234.64107956536978,234.6334968465312,16.811015118790497,3.8916008614501076,wassau,KCWA,44.7775993347,-89.6668014526,1277.0,1198,55073,4002,42.87344398340246,2.7656431535269705,0.4166666666666667,0.0,124632.0,14146.0,150.0,2.0,2.090909090909091
CYS,58.0,58.0,713.0,713.0,16.12280701754386,3.7017543859649122,cheyenne,KCYS,41.15570068,-104.81199649999999,6159.0,2982,56021,78728,46.27178423236517,1.3129460580912862,0.25,0.0,3234.0,15958.0,150.0,2.0,1.0
DAB,3548.0,3548.0,440.1333145434047,440.1333145434047,14.685174585002862,3.910908052541405,daytona,KDAB,29.179899,-81.058098,34.0,2220,12127,68055,71.9369294605809,4.2521576763485465,5.083333333333333,1.0833333333333333,366967.0,19696.0,133.33333333333334,3.0,2.0
DAL,70995.0,71003.0,731.624593281217,731.6043265777503,12.362970053720424,5.1803977679210185,dallas,KDAL,32.84709930419922,-96.85179901123048,487.0,4464,48113,5733259,66.33692946058092,3.224854771784232,21.083333333333332,1.0833333333333333,8011221.0,22699.0,150.0,3.0,7.633333333333334
DAY,14076.0,14074.0,459.122406933788,457.37288617308513,15.629106607155922,5.236481033091202,dayton,KDAY,39.90240097045898,-84.21939849853516,1009.0,22131,39113,718169,53.04273858921163,3.5629875518672227,0.0,0.0,858022.0,26403.0,150.0,3.0,4.592592592592593
DBQ,1009.0,1009.0,147.0,147.0,15.260188087774294,4.552549427679501,dubuque,KDBQ,42.40200043,-90.70950317,1077.0,18681,19061,68573,47.53734439834021,3.306887966804978,1.0,0.0,38831.0,12829.0,125.0,2.0,1.1428571428571428
DCA,132517.0,132518.0,641.2327625889509,641.2256976410752,19.429574016647624,6.730245210430187,washington,KDCA,38.8521,-77.037697,15.0,697,11001,5289420,56.90539419087132,3.7179253112033215,0.0,0.0,11366771.0,16984.0,150.0,3.0,7.138888888888889
DEN,235989.0,236020.0,894.8748670488878,893.3131344801288,17.12659896182112,8.373806543665017,denver,KDEN,39.861698150635,-104.672996521,5431.0,12400,8031,2787266,51.202074688796664,1.2218672199170126,39.666666666666664,2.25,31362941.0,76000.0,158.33333333333334,6.0,14.554347826086957
DFW,279298.0,279272.0,784.1159156170112,784.0063808759919,18.678155256540794,12.141215286922424,dallas,KDFW,32.896800994873054,-97.03800201416016,607.0,4464,48113,5733259,66.33692946058092,3.224854771784232,66.91666666666667,4.416666666666667,32821799.0,80403.0,171.42857142857142,7.0,8.428571428571429
DHN,1374.0,1374.0,170.0,170.0,20.58199121522694,3.8140556368960468,dothan,KDHN,31.3213005065918,-85.44960021972656,401.0,14775,1069,71620,66.98091286307056,4.494398340248967,0.0,0.0,52855.0,13498.0,150.0,2.0,5.1
DLH,2798.0,2798.0,250.6072194424589,250.6072194424589,19.58230152949745,5.391478514202476,duluth,KDLH,46.8420982361,-92.19360351559999,1428.0,24157,27137,120101,38.57178423236513,2.3439419087136937,0.3333333333333333,0.0,136806.0,15851.0,150.0,2.0,1.5483870967741935
DRO,3125.0,3125.0,414.8304,414.8304,16.225384363755314,4.854105332024861,durango,KDRO,37.1515007019,-107.75399780299999,6685.0,12600,8067,19662,45.466804979253126,1.7374688796680506,0.0,0.0,189225.0,9201.0,150.0,1.0,3.061224489795918
DSM,15576.0,15577.0,638.1654468412943,635.3589908197985,15.287024986985944,5.596731132382627,des,KDSM,41.53400039672852,-93.66310119628906,958.0,18352,19153,481222,49.90705394190871,3.042572614107884,11.666666666666666,0.6666666666666666,1347876.0,18004.0,150.0,2.0,4.428571428571429
DTW,157518.0,157488.0,653.9767836056832,653.7393896677842,19.052804645885814,8.356745319312644,detroit,KDTW,42.212398529052734,-83.35340118408203,645.0,24930,26115,1797,50.33236514522823,2.9077593360995855,26.75,0.8333333333333334,17436837.0,57713.0,175.0,6.0,6.413793103448276
DVL,626.0,627.0,317.05750798722045,83.0,20.248333333333335,5.471476510067114,devils,KDVL,48.11420059,-98.90879822,1456.0,7414,38071,7602,38.863070539419084,1.6653112033195017,0.0,0.0,6628.0,9822.0,112.5,2.0,1.0
EGE,2154.0,2153.0,780.5687093779015,779.9874593590339,18.377809660449547,6.7503579952267305,vail,KEGE,39.64260101,-106.9179993,6548.0,12437,8037,6017,39.963070539419085,1.9309128630705388,0.25,0.0,173863.0,14013.0,105.0,2.0,4.4
EKO,647.0,647.0,200.0,200.0,13.477449455676517,4.318322981366459,elko,KEKO,40.82490158081055,-115.79199981689452,5140.0,11767,32007,21178,45.57095435684644,1.176763485477178,0.0,0.0,18363.0,10085.0,105.0,2.0,2.8
ELM,333.0,333.0,920.4024024024025,919.2462462462463,13.882530120481928,5.518072289156627,elmira,KELM,42.1599006652832,-76.8916015625,954.0,9848,36015,3893,47.09834024896265,3.1925311203319495,0.0,0.0,141075.0,14421.0,150.0,3.0,2.2666666666666666
ELP,16982.0,16982.0,629.4959957602167,629.4175597691674,13.704527875290058,3.7448706512042818,paso,KELP,31.80719948,-106.37799840000002,3959.0,4478,48141,845674,64.3825726141079,0.810331950207469,4.833333333333333,0.25,1605486.0,26538.0,125.0,3.0,8.240506329113924
ERI,1015.0,1014.0,165.64137931034483,165.6153846153846,20.434093161546084,3.6259920634920637,erie,KERI,42.0831270134,-80.1738667488,732.0,10771,42049,188079,48.17468879668042,3.9918672199170127,1.25,0.08333333333333333,95342.0,11928.0,150.0,2.0,1.0
ESC,625.0,624.0,305.584,306.0,15.3442088091354,4.5245098039215685,escanaba,KESC,45.7226982117,-87.0936965942,609.0,24876,26041,20199,42.71161825726139,2.6987551867219928,0.16666666666666666,0.0,18474.0,11501.0,125.0,2.0,2.0
EUG,4103.0,4098.0,698.6383134291981,698.7981942410933,14.762861342479177,4.517055214723927,eugene,KEUG,44.12459945678711,-123.21199798583984,374.0,28146,41039,267568,50.158921161825745,5.193817427385893,0.0,0.0,566832.0,19237.0,150.0,3.0,5.3076923076923075
EVV,4618.0,4618.0,399.7572542226072,399.7572542226072,18.01640798226164,4.4731707317073175,evansville,KEVV,38.0369987488,-87.53240203860001,418.0,18072,18163,232285,56.90746887966804,4.1037344398340245,2.6666666666666665,0.3333333333333333,228850.0,17807.0,125.0,3.0,2.5
EWN,2187.0,2185.0,290.01874714220395,290.0819221967963,14.038072289156627,3.5842155919153034,new,KEWN,35.0730018616,-77.04290008539998,18.0,7342,37049,50617,62.5701244813278,4.575269709543567,0.0,0.0,111172.0,10004.0,150.0,2.0,1.0
EWR,143875.0,143863.0,1052.53464465682,1053.4446869591209,23.50432671937724,9.466271253459865,newark,KEWR,40.69250106811523,-74.168701171875,18.0,3314,34013,285154,53.65394190871371,4.128921161825727,0.0,0.0,22797602.0,27800.0,150.0,3.0,12.679245283018869
EYW,4756.0,4757.0,593.4041211101767,593.4809754046668,11.498935717326521,4.649458253664754,key,KEYW,24.556100845336914,-81.75959777832031,3.0,2477,12087,32820,76.73734439834021,4.099709543568466,1.75,0.16666666666666666,446005.0,4801.0,100.0,1.0,19.11111111111111
FAR,5752.0,5745.0,532.7736439499305,533.0485639686684,18.011331444759207,5.408069368253407,fargo,KFAR,46.92070007324219,-96.81580352783205,902.0,7546,38017,204820,41.907053941908714,1.8946473029045634,1.25,0.16666666666666666,429667.0,19100.0,133.33333333333334,3.0,4.104166666666667
FAT,11124.0,11124.0,495.3099604458828,498.9319489392305,15.629368097048705,5.344032549728753,fresno,KFAT,36.77619934082031,-119.71800231933594,336.0,14036,6019,698021,56.24522821576763,1.5309128630705384,0.0,0.0,853538.0,16422.0,125.0,2.0,3.84
FAY,3898.0,3898.0,210.62057465366854,210.62057465366854,16.35904255319149,4.375862068965517,fayetteville,KFAY,34.991199493408196,-78.88030242919922,189.0,7223,37051,324700,62.24232365145231,3.9002489626556023,0.0,0.0,234998.0,12513.0,150.0,2.0,2.3333333333333335
FLG,1190.0,1190.0,129.9294117647059,129.9294117647059,19.443201376936315,3.902837489251935,flagstaff,KFLG,35.13850021,-111.6709976,7014.0,19774,4005,78628,53.63651452282158,1.0309958506224064,0.25,0.0,67793.0,6999.0,150.0,1.0,2.8
FLL,97513.0,97512.0,1022.6432885871627,1022.713286569858,17.118464805510953,6.381643463567852,fort,KFLL,26.072599411010746,-80.15270233154297,9.0,2838,12011,180072,75.91493775933611,4.699004149377594,0.0,0.0,17612331.0,23930.0,150.0,3.0,9.166666666666666
FLO,170.0,170.0,99.0,99.0,14.389221556886227,5.130952380952381,florence,KFLO,34.18539810180664,-79.7238998413086,146.0,27416,45041,91311,64.07219917012452,3.8442738589211602,0.16666666666666666,0.0,44333.0,12498.0,150.0,2.0,2.6666666666666665
FNT,4160.0,4158.0,502.1704326923077,502.24074074074076,14.674110429447852,4.7329894374846475,flint,KFNT,42.96540069580078,-83.74359893798828,782.0,25073,26049,335354,48.19253112033198,2.8576348547717845,0.0,0.0,361709.0,15050.0,150.0,2.0,2.357142857142857
FSD,6359.0,6356.0,535.2781883944016,535.4891441157961,18.90252940228774,5.560869565217391,sioux,KFSD,43.5820007324,-96.741897583,1429.0,28664,46099,180204,45.9323651452282,2.348132780082987,1.9166666666666667,0.8333333333333334,529895.0,20151.0,125.0,3.0,4.805555555555555
FSM,2051.0,2051.0,344.0472940029254,344.0472940029254,14.990570719602978,3.8348214285714284,fort,KFSM,35.33660125732422,-94.36740112304688,469.0,15025,5131,125562,61.25933609958504,4.218008298755185,1.25,0.0,86973.0,13002.0,150.0,2.0,5.157894736842105
FWA,7081.0,7080.0,415.6256178505861,415.3382768361582,18.02106017191977,5.814517285898723,fort,KFWA,40.97850037,-85.19509888,814.0,17806,18003,328564,50.533195020746916,3.3148962655601646,0.0,0.0,372030.0,24002.0,125.0,3.0,1.0
GCC,833.0,833.0,313.0,313.0,18.40389294403893,5.506067961165049,gillette,KGCC,44.3488998413,-105.539001465,4365.0,3052,56005,34378,45.17925311203323,1.234356846473029,0.0,0.0,27136.0,13303.0,112.5,2.0,2.6666666666666665
GCK,731.0,731.0,404.0,404.0,12.517680339462517,4.2358757062146895,garden,KGCK,37.9275016785,-100.72399902299999,2891.0,26177,20055,30206,55.021991701244794,1.5787136929460575,0.0,0.0,25243.0,13000.0,100.0,2.0,1.4210526315789473
GEG,12348.0,12351.0,702.5404923874312,702.6945186624565,14.444064762834595,3.937621990891347,spokane,KGEG,47.61989974975586,-117.53399658203124,2376.0,317,53063,403043,47.077178423236525,1.6891701244813278,3.25,0.4166666666666667,1872781.0,19200.0,150.0,2.0,3.8852459016393444
GFK,2106.0,2108.0,384.5811965811966,384.33918406072104,18.780240963855423,4.451566265060241,grand,KGFK,47.949298999999996,-97.176102,845.0,7511,38035,66159,40.31286307053943,1.8205809128630697,3.25,0.4166666666666667,114578.0,18755.0,96.25,4.0,1.9166666666666667
GGG,803.0,803.0,140.0,140.0,13.713178294573643,4.571428571428571,longview,KGGG,32.38399887084961,-94.71150207519531,365.0,4687,48183,100196,65.70829875518673,3.8945643153526963,1.5,0.08333333333333333,24588.0,16109.0,150.0,2.0,2.606060606060606
GJT,3750.0,3725.0,418.60293333333334,418.32939597315436,15.65599784830554,3.8683005655803933,grand,KGJT,39.1223983765,-108.527000427,4858.0,12411,8077,136688,48.16929460580913,1.3665145228215767,0.3333333333333333,0.0,221978.0,16003.0,112.5,2.0,4.078947368421052
GNV,4492.0,4492.0,327.93276936776493,327.93143365983974,13.624773550724637,4.033401038140375,gainesville,KGNV,29.6900997162,-82.27179718020001,152.0,2686,12001,199695,69.73485477178421,4.302572614107886,0.0,0.0,233955.0,11662.0,125.0,2.0,1.375
GPT,4230.0,4230.0,430.9274231678487,430.9274231678487,13.823034383265208,4.6191392161577305,gulfport,KGPT,30.40730094909668,-89.07009887695312,28.0,26618,28047,221348,67.13526970954355,5.340414937759337,3.3333333333333335,0.16666666666666666,359055.0,20937.0,150.0,3.0,9.470588235294118
GRB,4846.0,4844.0,277.6256706562113,277.5499587118084,16.21360457724094,4.2492060131272495,green,KGRB,44.48509979248047,-88.12960052490234,695.0,961,55009,208625,45.06182572614111,2.8076763485477185,0.0,0.0,314909.0,19099.0,125.0,3.0,1.0
GRI,1001.0,1001.0,644.3986013986014,644.3986013986014,14.156122448979591,5.3404689092762485,grand,KGRI,40.96749877929688,-98.30960083007812,1847.0,8097,31079,53424,50.71825726141077,2.2523651452282163,0.6666666666666666,0.0,63298.0,13610.0,125.0,2.0,1.3870967741935485
GRK,2999.0,2998.0,147.71157052350785,147.71614409606406,16.630122950819672,4.098192976474599,killeen,KGRK,31.067199706999997,-97.8289031982,1015.0,4705,48027,247489,67.27385892116185,2.934522821576763,0.0,0.0,154328.0,10000.0,200.0,1.0,1.25
GRR,17340.0,17338.0,503.4900807381776,513.2398200484485,15.795060276389297,5.799388882359854,grand,KGRR,42.88079834,-85.52279663,794.0,25442,26081,11731,48.01161825726139,3.1965975103734414,9.583333333333334,0.8333333333333334,1631398.0,23501.0,133.33333333333334,3.0,4.111111111111111
GSO,12974.0,12982.0,377.84831200863266,377.8713603450932,18.613786515959564,6.128553279339368,greensboro,KGSO,36.097801208496094,-79.93730163574219,925.0,7383,37081,335588,59.140663900414964,3.7111618257261387,2.3333333333333335,0.4166666666666667,938593.0,25381.0,150.0,3.0,2.3333333333333335
GSP,13624.0,13624.0,367.36127422196125,366.72812683499706,15.775594389859746,4.085170190433348,greenville,KGSP,34.895698547399995,-82.2189025879,964.0,27411,45045,467894,60.54771784232364,4.387593360995851,1.5,0.08333333333333333,1133012.0,11000.0,150.0,1.0,3.74468085106383
GTF,1856.0,1856.0,647.0862068965517,647.6745689655172,13.83027027027027,4.2201189832341806,great,KGTF,47.48199844,-111.3710022,3680.0,26259,30013,65624,43.529460580912826,1.4078008298755182,0.5833333333333334,0.25,176434.0,21153.0,125.0,3.0,2.693877551020408
GTR,1021.0,1021.0,241.0,241.0,19.084729064039408,3.691625615763547,columbus,KGTR,33.450298309299995,-88.59140014649999,264.0,26667,28087,31701,63.454356846473004,4.6484647302904545,0.3333333333333333,0.0,46246.0,8002.0,150.0,1.0,51.6875
GUC,230.0,230.0,758.4869565217391,758.4869565217391,13.716814159292035,3.8008849557522124,gunnison,KGUC,38.53390121,-106.9329987,7680.0,12521,8051,7075,38.85809128630705,1.842282157676348,0.16666666666666666,0.0,36238.0,12400.0,150.0,2.0,8.67741935483871
HDN,930.0,930.0,870.7172043010753,870.7172043010753,19.396247240618102,5.4769736842105265,hayden,KHDN,40.48120117,-107.21800230000001,6606.0,12648,8107,1932,40.318257261410785,2.1045643153526963,1.4166666666666667,0.0,100079.0,10000.0,150.0,1.0,2.5
HLN,1811.0,1810.0,555.8221976808393,555.8011049723757,19.14784053156146,3.6515235457063713,helena,KHLN,46.6068000793457,-111.98300170898438,3877.0,26412,30049,50227,41.323236514522804,1.8364730290456424,0.5,0.08333333333333333,115438.0,16633.0,100.0,3.0,2.8260869565217392
HOU,57841.0,57841.0,698.8376756971699,698.7917221348179,11.543199691054626,5.493782274212246,houston,KHOU,29.64539909,-95.27890015,46.0,5553,48201,5446468,69.92489626556022,4.438174273858919,0.0,0.0,7053886.0,26352.0,137.5,4.0,7.343283582089552
HPN,9875.0,9895.0,784.8953924050633,785.6827690752906,16.42837653478854,5.21437578814628,white,KHPN,41.06700134277344,-73.70760345458984,439.0,9666,36119,59047,52.270124481327805,4.08091286307054,10.833333333333334,1.5833333333333333,789283.0,10999.0,150.0,2.0,20.294117647058822
HRL,3443.0,3444.0,318.65669474295674,318.6498257839721,11.463550852439742,3.272274325908558,harlingen,KHRL,26.228500366210934,-97.65440368652344,36.0,5241,48061,136968,75.06099585062243,2.07713692946058,0.0,0.0,302236.0,21507.0,150.0,3.0,1.7
HSV,8619.0,8620.0,419.528947673744,419.67412993039443,15.974893415442917,4.99313446969697,huntsville,KHSV,34.637199401855,-86.775100708008,629.0,14867,1089,309716,60.75518672199169,4.768423236514525,0.0,0.0,580932.0,22606.0,150.0,2.0,2.8
HTS,879.0,878.0,446.7656427758817,446.25740318906605,10.3214709371293,5.179245283018868,huntington,KHTS,38.36669922,-82.55799866,828.0,1798,54011,194155,55.7979253112033,3.797676348547722,0.0,0.0,101701.0,9516.0,105.0,2.0,3.5789473684210527
HVN,1031.0,1031.0,157.8690591658584,157.8690591658584,10.198481561822126,3.23952738990333,new,KHVN,41.26369858,-72.88680267,12.0,20096,9009,568144,50.79751037344398,4.039128630705395,0.0,0.0,38991.0,9226.0,125.0,2.0,3.0
HYA,89.0,89.0,196.0,196.0,8.875,3.590909090909091,barnstable,KHYA,41.66930008,-70.28040314,54.0,19267,25001,241132,51.014937759336114,4.042780082987552,0.8333333333333334,0.08333333333333333,28341.0,10677.0,150.0,2.0,1.0
HYS,1078.0,1079.0,209.36363636363637,209.29008341056533,14.562085308056872,4.403791469194313,hays,KHYS,38.84220123,-99.27320099,1999.0,25624,20051,21525,54.77053941908713,2.042282157676348,0.5833333333333334,0.08333333333333333,11996.0,11000.0,87.5,2.0,1.1666666666666667
IAD,68700.0,68683.0,920.4528238719068,912.519721037229,19.806774999630345,5.914917225156451,washington,KIAD,38.94449997,-77.45580292,312.0,20580,24031,565,55.25477178423236,3.7242323651452303,0.0,0.0,11621623.0,45003.0,150.0,4.0,2.4
IAG,811.0,810.0,1019.7879161528977,1019.5950617283951,14.271589486858574,8.164160401002507,niagara,KIAG,43.1072998046875,-78.94619750976562,589.0,8842,36063,48460,48.732780082987546,2.9541493775933643,0.16666666666666666,0.08333333333333333,119182.0,18991.0,125.0,3.0,1.0
IAH,173806.0,173782.0,825.0526794241856,825.1199261143272,18.94428198524496,8.352258440046565,houston,KIAH,29.98439979553223,-95.34140014648438,97.0,5553,48201,5446468,69.92489626556022,4.438174273858919,0.0,0.0,21157398.0,50402.0,150.0,5.0,4.1525423728813555
ICT,10538.0,10537.0,572.1735623457962,573.0677612223593,14.184668654419545,4.465404574284067,wichita,KICT,37.649898529052734,-97.43309783935548,1333.0,25976,20173,483057,57.45186721991703,2.900082987551869,4.583333333333333,0.8333333333333334,812252.0,23903.0,150.0,3.0,5.275862068965517
IDA,2167.0,2166.0,320.10429164743886,320.0406278855032,14.913506012950972,4.442387783433595,idaho,KIDA,43.51459884643555,-112.0709991455078,4744.0,19872,16019,97548,42.36390041493779,1.76298755186722,0.0,0.0,161019.0,13053.0,112.5,2.0,1.8095238095238095
ILM,6585.0,6585.0,314.34168564920276,314.34168564920276,15.32812749003984,4.281692381103865,wilmington,KILM,34.27059936523437,-77.90260314941406,32.0,7017,37129,245910,63.526556016597496,4.667717842323654,2.5833333333333335,0.16666666666666666,468816.0,15020.0,175.0,2.0,1.2727272727272727
IMT,652.0,651.0,297.1641104294479,297.2258064516129,15.16304347826087,4.472049689440993,iron,KIMT,45.8184013367,-88.11450195309999,1182.0,25453,26043,18568,41.24896265560168,2.521659751037345,0.08333333333333333,0.0,19552.0,10312.0,112.5,2.0,1.0
IND,48932.0,48931.0,721.584648083054,719.8277574543745,15.101290818765719,6.245666181667013,indianapolis,KIND,39.7173,-86.294403,797.0,17945,18097,1564699,52.49253112033195,3.752199170124482,13.666666666666666,1.0833333333333333,4655847.0,28805.0,150.0,3.0,2.0
INL,650.0,650.0,255.0,255.0,17.14397496087637,4.259375,international,KINL,48.566200256347656,-93.4030990600586,1185.0,24393,27071,6581,38.49917012448133,2.2424896265560177,0.16666666666666666,0.08333333333333333,17225.0,9507.0,112.5,2.0,1.6
ISP,6151.0,6153.0,806.5592586571289,807.2902649114253,11.2027208599261,4.619359167924845,islip,KISP,40.79520035,-73.10019684,99.0,8954,36103,5611,52.642738589211596,3.8276763485477177,0.0,0.0,811535.0,20401.0,131.25,4.0,22.511111111111113
ITH,985.0,986.0,353.41421319796956,353.2505070993915,21.46728016359918,3.9508196721311477,ithaca,KITH,42.49100112915039,-76.4583969116211,1099.0,9390,36109,2244,46.707053941908704,3.4120746887966806,0.0,0.0,99070.0,8619.0,100.0,2.0,1.7272727272727273
JAC,4206.0,4208.0,686.6749881122206,686.7999049429658,19.00647016534867,4.066714490674318,jacksn,KJAC,43.6072998046875,-110.73799896240234,6451.0,3098,56039,132,35.57800829875519,2.9110788381742747,0.75,0.16666666666666666,381539.0,6300.0,150.0,1.0,4.18
JAN,7746.0,7746.0,428.01161890007745,428.08843273947843,14.440311304577232,4.744274809160306,jackson,KJAN,32.3111991882,-90.0758972168,346.0,26692,28049,338185,65.32282157676346,4.735684647302903,0.0,0.0,489454.0,17000.0,150.0,2.0,12.725
JAX,31340.0,31342.0,630.6446075303127,631.7222576734094,13.937232108065983,5.601160190556437,jacksonville,KJAX,30.49410057067871,-81.68789672851562,30.0,2646,12031,1156291,69.4838174273859,4.027676348547719,12.916666666666666,0.9166666666666666,3135508.0,17701.0,150.0,2.0,14.265060240963855
JFK,129684.0,129684.0,1235.322846303322,1235.5732781222048,27.497322899505765,9.683894097304844,new,KJFK,40.63980103,-73.77890015,13.0,9715,36059,9953,54.264730290456434,3.8736099585062216,0.0,0.0,30620769.0,44990.0,200.0,4.0,17.197674418604652
JLN,805.0,805.0,327.0,327.0,17.680715197956577,4.39108280254777,joplin,KJLN,37.151798248291016,-94.49829864501952,981.0,23414,29097,86298,57.6634854771784,3.765560165975103,0.5833333333333334,0.16666666666666666,40013.0,16606.0,108.33333333333333,3.0,1.0
LAN,3513.0,3512.0,202.08966695132366,202.01765375854214,17.52303680092727,4.375144843568946,lansing,KLAN,42.77870178222656,-84.58740234375,861.0,25114,26065,320928,48.07053941908711,2.97896265560166,0.0,0.0,184018.0,15853.0,115.0,3.0,1.6363636363636365
LAR,625.0,624.0,113.0,113.0,20.140776699029125,4.656401944894651,laramie,KLAR,41.31209945678711,-105.6750030517578,7284.0,2934,56001,33508,41.43360995850624,1.2092116182572608,0.25,0.0,17188.0,14800.0,125.0,2.0,1.0
LAS,161113.0,161149.0,992.5684581629043,992.9311010307231,15.03428125,6.671936314329276,las,KLAS,36.08010101,-115.15200039999999,2181.0,11731,32003,2073045,65.17800829875522,0.5795850622406641,0.0,0.0,23795012.0,43796.0,150.0,4.0,20.88888888888889
LAW,1342.0,1342.0,140.0,140.0,13.83179012345679,3.268875192604006,lawton,KLAW,34.5676994324,-98.4166030884,1110.0,20969,40031,91383,62.193360995850604,2.5614107883817425,0.0,0.0,48086.0,8599.0,150.0,1.0,3.0588235294117645
LAX,221486.0,221516.0,1308.0168046738845,1307.8869697899927,18.9902918368555,11.926139547597895,los,KLAX,33.94250107,-118.40799709999999,125.0,14121,6037,12815475,62.333195020746885,1.1211203319502068,18.083333333333332,2.0833333333333335,42624050.0,42397.0,162.5,4.0,20.181818181818183
LBB,6373.0,6372.0,377.89314294680685,377.888418079096,12.995049504950495,4.288154533844189,lubbock,KLBB,33.66360092163086,-101.822998046875,3282.0,4689,48303,262505,61.10995850622406,1.611327800829876,3.25,0.16666666666666666,484010.0,22392.0,125.0,3.0,3.212121212121212
LBE,1090.0,1087.0,798.1761467889909,798.4461821527138,12.58736059479554,6.492523364485981,latrobe,KLBE,40.27590179,-79.40480042,1199.0,11463,42129,7949,50.78215767634855,3.9580912863070536,0.16666666666666666,0.0,151410.0,10597.0,87.5,2.0,2.1818181818181817
LBF,569.0,570.0,228.0,228.0,14.526690391459075,4.897163120567376,north,KLBF,41.12620163,-100.6839981,2777.0,7942,31111,24352,49.95518672199169,1.8222821576763495,0.16666666666666666,0.08333333333333333,13798.0,12436.0,125.0,2.0,3.0
LBL,561.0,561.0,246.3030303030303,246.3030303030303,16.034234234234233,4.922522522522523,liberal,KLBL,37.04420089999999,-100.95999909999999,2885.0,25709,20175,19636,56.578008298755165,1.6431120331950215,0.16666666666666666,0.0,7985.0,12826.0,150.0,2.0,1.8571428571428572
LCH,1940.0,1941.0,207.96907216494844,207.9273570324575,12.579611140304783,5.000524658971669,lake,KLCH,30.12610054016113,-93.22329711914062,15.0,6254,22019,153633,68.5410788381743,5.148464730290455,0.08333333333333333,0.0,58122.0,11700.0,125.0,2.0,1.3571428571428572
LCK,1084.0,1079.0,761.640221402214,761.3595922150139,12.092264678471574,5.947809878844361,columbus,KLCK,39.813801,-82.927803,744.0,21652,39049,1528314,52.86141078838175,3.549502074688795,0.5,0.0,154475.0,27283.0,136.66666666666666,3.0,2.4285714285714284
LEX,10097.0,10099.0,423.8244032881054,423.9670264382612,16.916565656565655,4.836460855528652,lexington,KLEX,38.0364990234375,-84.60590362548828,979.0,27657,21067,315939,55.43319502074687,4.277136929460582,6.0,0.4166666666666667,657018.0,7003.0,150.0,1.0,1.9230769230769231
LFT,4560.0,4561.0,337.19451754385966,337.3054154790616,15.87917507285362,5.365875503806539,lafayette,KLFT,30.20529938,-91.98760223,42.0,6201,22055,265746,68.62282157676353,5.102033195020743,0.0,0.0,223529.0,17149.0,124.33333333333333,3.0,5.161290322580645
LGA,171093.0,171082.0,708.2300620130572,708.1814977613075,26.32621503555087,8.849064659562918,new,KLGA,40.77719879,-73.87259674,21.0,9730,36061,19354922,55.215767634854764,4.036016597510376,0.0,0.0,15058501.0,14000.0,150.0,2.0,11.411214953271028
LGB,16796.0,16798.0,663.1141343176947,662.7746755566138,13.36059880239521,4.3555608763318565,long,KLGB,33.81769943,-118.15200039999999,60.0,13639,6037,469450,62.333195020746885,1.1211203319502068,0.0,0.0,1908635.0,30349.0,130.0,5.0,2.883720930232558
LIT,13232.0,13231.0,491.1958131801693,491.0371853979291,14.153080750095675,5.318070444104134,little,KLIT,34.729400634799994,-92.22429656979999,262.0,15048,5119,442699,62.07012448132778,4.5396265560165965,0.0,0.0,1031258.0,20597.0,150.0,3.0,10.909090909090908
LNK,1780.0,1780.0,435.6814606741573,434.7151685393258,19.902161547212742,4.145952109464082,lincoln,KLNK,40.85100173950195,-96.75920104980469,1219.0,8274,31109,285118,51.76348547717841,2.62746887966805,5.416666666666667,0.08333333333333333,150214.0,26950.0,150.0,3.0,1.3846153846153846
LRD,2442.0,2443.0,388.2289107289107,388.19320507572655,13.993299832495813,4.088702928870293,laredo,KLRD,27.543800354003906,-99.46160125732422,508.0,5820,48479,260244,73.01867219917015,1.7650622406639,0.5833333333333334,0.08333333333333333,95858.0,21994.0,150.0,3.0,1.5
LSE,2139.0,2139.0,170.43338008415148,170.43338008415148,17.197596153846153,3.760556621880998,crosse,KLSE,43.879002,-91.256699,655.0,1259,55063,101886,45.995435684647276,3.1021161825726127,0.4166666666666667,0.16666666666666666,99651.0,19886.0,150.0,3.0,7.95
LWB,576.0,577.0,296.9947916666667,295.86481802426346,14.929078014184396,4.123893805309734,lewisburg,KLWB,37.8582992554,-80.3994979858,2302.0,1720,54025,7099,50.60041493775936,3.909917012448132,0.25,0.08333333333333333,10359.0,7004.0,150.0,1.0,1.8333333333333333
LWS,717.0,717.0,461.0,461.0,11.776536312849162,4.118715083798882,lewiston,KLWS,46.3745002746582,-117.01499938964844,1442.0,19861,16069,53436,49.1070539419087,1.7948547717842318,0.0,0.0,57957.0,11513.0,125.0,2.0,1.625
MAF,8768.0,8769.0,418.68978102189783,418.678412589805,13.226518054104261,4.136,midland,KMAF,31.9424991607666,-102.2020034790039,2871.0,5711,48329,144247,65.06390041493775,1.2390041493775934,3.3333333333333335,0.08333333333333333,618794.0,26747.0,118.75,4.0,7.882352941176471
MBS,2845.0,2849.0,180.99894551845344,180.93015093015094,17.94454382826476,4.61637468716482,saginaw,KMBS,43.532901763916016,-84.07959747314453,668.0,25332,26145,119336,48.149792531120326,2.7696265560165982,3.5,0.3333333333333333,127627.0,14402.0,150.0,2.0,1.75
MCI,56195.0,56195.0,778.4676928552362,778.5233383753003,12.771981147407768,5.162051837803666,kansas,KMCI,39.2976,-94.713898,1026.0,25679,20209,152938,55.34398340248965,3.23979253112033,37.666666666666664,2.25,5790847.0,29801.0,150.0,3.0,2.0
MCO,138296.0,138315.0,976.5940663504367,976.5851281495138,15.484997296151766,9.450729459943691,orlando,KMCO,28.429399490356445,-81.30899810791016,96.0,2196,12095,1776841,72.81618257261415,4.167095435684648,34.0,4.833333333333333,23202480.0,43009.0,175.0,4.0,17.44705882352941
MDT,6304.0,6303.0,529.8837246192893,529.7709027447247,15.682537094407305,5.155023611789611,harrisburg,KMDT,40.1935005188,-76.7633972168,310.0,10252,42043,441580,51.962240663900445,3.943443983402489,10.916666666666666,0.6666666666666666,636756.0,10001.0,200.0,1.0,2.6470588235294117
MDW,87095.0,87087.0,797.381043687927,797.7040890144339,12.368602929076847,5.730302566697657,chicago,KMDW,41.7859992980957,-87.75240325927734,620.0,16435,17031,14186,50.19377593360994,3.267966804979254,24.666666666666668,1.5833333333333333,10678018.0,27475.0,132.0,5.0,28.227272727272727
MEI,1093.0,1094.0,406.5242451967063,268.34917733089577,15.409133271202236,4.972897196261682,meridian,KMEI,32.33259963989258,-88.75189971923828,297.0,26705,28075,38294,64.26431535269712,4.62829875518672,0.0,0.0,19332.0,14602.0,150.0,2.0,1.3333333333333333
MEM,23038.0,23037.0,629.377593541106,627.2000694534879,15.169483298768919,5.346347052084251,memphis,KMEM,35.04240036010742,-89.97669982910156,341.0,8810,47157,1068873,61.96141078838169,4.703236514522819,11.5,1.8333333333333333,2213083.0,38386.0,150.0,4.0,2.0
MFE,4610.0,4611.0,465.87982646420824,465.9373237909347,12.395405887600356,4.124055135615829,mcallen,KMFE,26.17580032,-98.23860168,107.0,4348,48215,800904,75.15892116182572,1.884522821576764,0.0,0.0,347440.0,9758.0,105.0,2.0,1.6363636363636365
MFR,4711.0,4726.0,589.7104648694544,589.2128650021159,16.082449686215107,5.547562296858072,medford,KMFR,42.37419891357422,-122.8730010986328,1335.0,28359,41029,168219,50.76182572614108,2.9599170124481313,0.0,0.0,492217.0,11936.0,125.0,2.0,1.3636363636363635
MGM,4120.0,4119.0,317.50946601941746,317.4962369507162,17.088257107540173,3.7541954590325766,montgomery,KMGM,32.30059814,-86.39399719,221.0,14440,1101,255908,65.15435684647301,4.271867219917011,0.0,0.0,170544.0,13020.0,150.0,2.0,2.4285714285714284
MHK,1834.0,1835.0,461.41984732824426,461.1525885558583,13.913337084974676,3.874227961819203,manhattan,KMHK,39.14099884033203,-96.6707992553711,1057.0,26057,20161,57284,54.51908713692945,2.719792531120334,0.25,0.08333333333333333,72883.0,10800.0,125.0,2.0,4.555555555555555
MHT,9726.0,9726.0,590.0642607443965,589.2258893687025,13.584771033013844,4.585337305809746,manchester,KMHT,42.93259811401367,-71.43569946289062,266.0,3157,33011,160742,47.06265560165978,4.06439834024896,7.333333333333333,0.3333333333333333,911225.0,16100.0,150.0,2.0,5.764705882352941
MIA,87880.0,87860.0,1023.6851160673646,1023.5945139995447,19.004783533605472,9.455776204455189,miami,KMIA,25.79319953918457,-80.29060363769531,8.0,2864,12086,14424,76.33070539419084,4.5924066390041505,16.833333333333332,2.0,21021640.0,41460.0,162.5,4.0,5.7
MKE,32507.0,32498.0,762.9193096871443,762.7224752292449,14.133933595948227,5.078365790378544,milwaukee,KMKE,42.94720077514648,-87.89659881591797,723.0,1122,55079,4157,47.73900414937762,2.93182572614108,10.666666666666666,0.5833333333333334,3496724.0,32553.0,150.0,5.0,17.456521739130434
MKG,720.0,721.0,118.25138888888888,118.25242718446601,16.759177679882526,4.66955266955267,muskegon,KMKG,43.16949844,-86.23819733,629.0,25329,26121,10735,47.987551867219956,3.1047302904564296,0.5,0.08333333333333333,18718.0,11502.0,150.0,2.0,1.5
MLB,2453.0,2452.0,459.72849571952713,459.7357259380098,15.021443298969071,4.793075020610058,melbourne,KMLB,28.10280036926269,-80.64530181884766,33.0,2660,12009,82011,73.05228215767636,4.176473029045643,0.8333333333333334,0.25,234939.0,19182.0,125.0,3.0,1.6
MLI,5048.0,5048.0,493.7690174326466,493.8492472266244,16.386340674883815,5.534006054490414,moline,KMLI,41.44850158691406,-90.50749969482422,590.0,16458,17161,42231,50.38713692946057,3.1821991701244814,9.083333333333334,0.6666666666666666,355241.0,21512.0,150.0,3.0,2.892857142857143
MLU,3082.0,3082.0,350.3329007138222,350.3329007138222,15.006898817345597,4.353810775295663,monroe,KMLU,32.51089859008789,-92.0376968383789,79.0,6150,22073,115462,65.06970954356844,4.688796680497925,0.4166666666666667,0.0,107107.0,17508.0,150.0,3.0,2.92
MMH,149.0,149.0,257.32214765100673,257.32214765100673,22.074074074074073,3.9925925925925925,mammoth,KMMH,37.62409973,-118.83799740000002,7135.0,13991,6051,7598,44.92365145228212,1.2358091286307054,0.0,0.0,23522.0,7000.0,100.0,1.0,4.666666666666667
MOB,6566.0,6565.0,431.260889430399,431.2080731150038,14.764237790606959,4.367773102695963,mobile,KMOB,30.691200256348,-88.242797851562,219.0,14684,1097,318084,67.25394190871366,5.289543568464729,0.0,0.0,297544.0,12886.0,150.0,2.0,2.590909090909091
MOT,2560.0,2559.0,562.821875,562.5947635795233,18.864864864864863,5.386417791898332,minot,KMOT,48.2593994140625,-101.27999877929688,1716.0,7475,38101,49884,40.486721991701266,1.4779668049792531,0.08333333333333333,0.08333333333333333,149865.0,14050.0,125.0,2.0,7.024390243902439
MRY,3911.0,3912.0,370.78880081820506,370.93916155419225,16.62889812889813,3.4477650727650726,monterey,KMRY,36.58700180053711,-121.84300231933594,257.0,13935,6053,28639,59.04481327800829,1.6544398340248954,0.5,0.08333333333333333,186806.0,11129.0,105.0,2.0,2.5
MSN,13183.0,13188.0,522.3515133125995,522.1400515620261,14.871894109451196,4.747389589295382,madison,KMSN,43.13990020751953,-89.3375015258789,887.0,1010,55025,439553,46.93817427385894,3.1883817427385925,0.0,0.0,1043185.0,22051.0,150.0,3.0,1.5
MSO,3430.0,3429.0,744.4040816326531,744.5742198891805,15.431751611013475,6.750219362386662,missoula,KMSO,46.91630173,-114.0910034,3206.0,26322,30063,90218,41.792116182572606,2.439958506224066,0.8333333333333334,0.16666666666666666,425563.0,14113.0,112.5,2.0,3.0
MSP,159375.0,159365.0,771.6735184313726,771.5391585354375,20.051684795010267,6.024577270939835,minneapolis,KMSP,44.8819999695,-93.22180175780001,841.0,24417,27053,2926757,45.27095435684646,2.6618257261410774,0.0,0.0,18361942.0,37006.0,162.5,4.0,6.121212121212121
MSY,55883.0,55887.0,802.2173469570353,802.1282767012007,12.214950563181342,5.510520887988276,new,KMSY,29.99340057373047,-90.25800323486328,4.0,6090,22089,1203,69.43817427385892,5.214066390041495,18.25,1.9166666666666667,6582066.0,20675.0,150.0,3.0,1.0
MTJ,1494.0,1494.0,668.727576974565,668.727576974565,17.137577002053387,5.606267029972752,montrose,KMTJ,38.5097999573,-107.89399719200001,5759.0,12828,8085,22912,48.35103734439834,1.2125311203319504,0.0,0.0,133924.0,17500.0,125.0,2.0,5.833333333333333
MVY,492.0,492.0,198.97560975609755,198.97560975609755,15.809128630705395,4.790890269151139,vineyard,KMVY,41.393100738499996,-70.6143035889,67.0,19306,25007,1821,51.52240663900419,3.997012448132781,0.0,0.0,52605.0,11978.0,83.33333333333333,3.0,2.3333333333333335
MYR,11602.0,11603.0,436.2049646612653,436.24140308540893,13.357009345794392,5.003197158081705,myrtle,KMYR,33.6796989441,-78.9282989502,25.0,27558,45051,260487,63.904564315352744,4.085933609958507,3.25,0.3333333333333333,1254307.0,9503.0,150.0,1.0,5.804347826086956
OAJ,3110.0,3110.0,277.87845659163986,277.87845659163986,17.55600539811066,3.5210084033613445,jacksonville,KOAJ,34.8292007446,-77.61209869380002,94.0,7186,37133,108872,62.65767634854775,4.672780082987551,0.9166666666666666,0.0,152448.0,7100.0,150.0,1.0,1.0
OAK,52676.0,52650.0,762.7071911306857,762.9612725546059,12.362080884894572,5.799950016340811,oakland,KOAK,37.72129821777344,-122.22100067138672,9.0,14178,6001,425195,59.4809128630706,1.5251867219917,0.0,0.0,6686603.0,25047.0,131.25,4.0,10.015384615384615
OGS,137.0,137.0,1176.7153284671533,1176.7153284671533,16.428571428571427,7.023809523809524,ogdensburg,KOGS,44.681900024399994,-75.46549987790002,297.0,9658,36089,10893,44.012863070539375,3.4760995850622436,0.08333333333333333,0.08333333333333333,23448.0,5200.0,150.0,1.0,1.0
OKC,23268.0,23270.0,609.7091284167096,610.0765792866351,13.574787720444155,5.022940971617621,oklahoma,KOKC,35.39310073852539,-97.60070037841795,1295.0,20983,40109,955998,61.04273858921164,3.0174688796680513,6.833333333333333,0.16666666666666666,2094708.0,30481.0,131.25,4.0,5.195652173913044
OMA,25020.0,25023.0,729.0948041566746,728.7473923989929,14.72185242308629,4.362954858578491,omaha,KOMA,41.303199768066406,-95.89409637451172,984.0,8204,31055,827786,51.06141078838175,2.7549792531120327,22.416666666666668,1.1666666666666667,2454878.0,26155.0,150.0,3.0,2.4901960784313726
ONT,21279.0,21277.0,577.2635462192773,577.249330262725,11.14927563677682,4.276095391312577,ontario,KONT,34.05599975585937,-117.60099792480469,944.0,13894,6071,175841,67.11659751037348,0.5126970954356848,12.083333333333334,0.75,2498993.0,22398.0,150.0,2.0,6.419354838709677
ORD,332953.0,332942.0,738.9066955396107,739.003246811757,22.471002841414695,13.763979929408581,chicago,KORD,41.97859955,-87.90480042,672.0,16289,17031,8675982,50.19377593360994,3.267966804979254,0.0,0.0,39873927.0,79866.0,161.11111111111111,9.0,18.54954954954955
ORF,22785.0,22792.0,458.1689708141321,458.0240435240435,15.44056135234884,4.47300560389995,norfolk,KORF,36.89459991455078,-76.20120239257812,26.0,12081,51710,244703,60.976763485477186,3.9962655601659756,8.75,0.75,1846031.0,13876.0,150.0,2.0,3.8085106382978724
OTH,371.0,371.0,469.55256064690025,469.55256064690025,15.03921568627451,3.95,north,KOTH,43.41709899902344,-124.24600219726562,17.0,28370,41011,9702,52.92780082987552,5.467095435684641,0.5,0.08333333333333333,12369.0,9792.0,150.0,2.0,4.9
OWB,111.0,110.0,706.0,706.0,5.813084112149533,6.91588785046729,owensboro,KOWB,37.74010086,-87.16680145,407.0,28079,21059,73173,57.16390041493774,4.174398340248963,0.0,0.0,19532.0,11494.0,125.0,2.0,2.2222222222222223
PAH,719.0,720.0,342.0,342.0,14.696220930232558,4.373913043478261,paducah,KPAH,37.06079864501953,-88.7738037109375,410.0,27975,21145,48629,58.36929460580915,4.333734439834021,0.25,0.08333333333333333,20934.0,11999.0,150.0,2.0,1.5
PBG,952.0,952.0,1064.03256302521,1063.264705882353,14.702959830866808,5.5554382259767685,plattsburgh,KPBG,44.6509017944336,-73.46810150146484,234.0,8831,36019,29006,43.495020746888,3.324232365145229,0.0,0.0,119783.0,11758.0,200.0,1.0,3.076923076923077
PBI,25083.0,25084.0,921.790575290037,921.8164965715197,14.567283499715932,4.524527689937566,palm,KPBI,26.68320083618164,-80.09559631347656,19.0,2221,12099,24892,75.1473029045643,4.4836514522821584,0.0,0.0,3270605.0,20153.0,125.0,3.0,4.5
PDX,63079.0,63066.0,1102.0932481491463,1100.522024545714,13.628871734345593,4.720284515892382,portland,KPDX,45.58869934,-122.59799960000001,31.0,28361,41051,2052796,51.748132780082976,5.15170124481328,0.0,0.0,9804868.0,26001.0,150.0,3.0,5.688524590163935
PGD,5223.0,5229.0,969.0754355734252,969.0567986230636,10.286949836632711,6.920854997111496,punta,KPGD,26.92020035,-81.99050140000001,26.0,2607,12015,19761,74.14979253112034,4.289377593360998,0.5,0.25,787022.0,16029.0,150.0,3.0,5.666666666666667
PGV,896.0,896.0,203.0,203.0,15.25876662636034,3.1265060240963853,greenville,KPGV,35.6352005,-77.38529968,26.0,6757,37147,128385,61.63319502074689,4.321410788381742,0.16666666666666666,0.0,51599.0,14185.0,150.0,3.0,1.0
PHF,2669.0,2667.0,373.1423754215062,372.23884514435696,14.257309941520468,4.464049747376603,newport,KPHF,37.13190079,-76.49299622,42.0,11974,51700,179388,60.40124481327802,4.0221161825726135,4.333333333333333,0.5,195573.0,14529.0,150.0,2.0,2.0
PHL,116946.0,116944.0,841.940553759855,842.1184669585442,22.312220297704354,8.10530624460837,philadelphia,KPHL,39.87189865112305,-75.24109649658203,36.0,11154,42101,5637884,55.49709543568464,3.9785062240663893,36.833333333333336,2.0833333333333335,15292670.0,30466.0,162.5,4.0,27.84
PHX,173962.0,173953.0,934.789919637622,934.8267290589987,15.30621652141182,7.922491554348205,phoenix,KPHX,33.43429946899414,-112.01200103759766,1135.0,19443,4013,4081849,71.51369294605811,0.6727385892116182,16.333333333333332,1.25,21622580.0,29589.0,150.0,3.0,12.835051546391753
PIA,5348.0,5348.0,517.8666791323859,517.6615557217651,16.86354066985646,4.983196486538095,peoria,KPIA,40.664199829100006,-89.6932983398,660.0,16478,17143,4566,51.721991701244846,3.202987551867218,2.5,0.16666666666666666,328769.0,18107.0,150.0,2.0,3.0
PIB,729.0,729.0,69.0,265.2304526748971,16.398591549295773,4.519718309859155,hattiesburg,KPIB,31.467100143432614,-89.33709716796875,298.0,26638,28035,81036,66.1128630705394,5.184481327800828,0.0,0.0,9813.0,6501.0,150.0,1.0,2.6666666666666665
PIE,7487.0,7497.0,878.2068919460398,878.156329198346,12.648125755743651,7.007934373318989,petersburg,KPIE,27.91020012,-82.68740082,11.0,2197,12103,263255,73.41369294605805,4.415435684647303,0.0,0.0,1115886.0,33598.0,135.0,5.0,2.75
PIH,1262.0,1262.0,150.0,150.0,14.083267248215702,3.3380952380952382,pocatello,KPIH,42.9098014831543,-112.59600067138672,4452.0,19937,16005,71020,45.33029045643152,1.549170124481328,0.0,0.0,46303.0,16210.0,125.0,2.0,1.5
PIT,49113.0,49115.0,646.770814244701,646.8518171637993,15.99285788435586,5.859135343807725,pittsburgh,KPIT,40.49150085,-80.23290253,1203.0,10478,42003,1715297,51.8597510373444,3.5702489626556013,0.0,0.0,4670033.0,39811.0,162.5,4.0,4.276315789473684
PLN,1027.0,1027.0,199.11879259980526,199.11879259980526,15.813387423935092,5.419878296146044,pellston,KPLN,45.57089996,-84.79669952,721.0,25487,26047,840,43.8688796680498,2.808630705394191,0.08333333333333333,0.0,25464.0,11907.0,150.0,2.0,2.6666666666666665
PNS,11386.0,11388.0,500.9233268926752,501.0345100105374,13.41770227983907,4.363393096066363,pensacola,KPNS,30.473400115967003,-87.18659973144501,121.0,2097,12033,344400,67.62821576763486,5.1109128630705385,5.666666666666667,0.25,972081.0,14004.0,150.0,2.0,20.91111111111111
PSC,2886.0,2885.0,695.7134442134442,695.7802426343154,15.513684210526316,5.146801817546312,pasco,KPSC,46.26470184326172,-119.11900329589844,410.0,319,53021,73013,51.92033195020749,0.7861825726141081,0.8333333333333334,0.16666666666666666,395348.0,19837.0,125.0,3.0,2.1363636363636362
PSM,303.0,300.0,1170.5973597359737,1170.4133333333334,13.239057239057239,5.508417508417509,portsmouth,KPSM,43.0778999329,-70.8233032227,100.0,3152,33015,92513,47.975103734439806,4.019211618257265,0.0,0.0,92836.0,11321.0,150.0,1.0,2.888888888888889
PSP,10619.0,10620.0,719.3388266315095,718.9968926553672,15.221114592233931,5.533978739559605,palm,KPSP,33.829700469970696,-116.50700378417969,477.0,13160,6065,48142,68.91576763485477,0.6037344398340256,0.8333333333333334,0.0,1163883.0,14952.0,112.5,2.0,4.0576923076923075
PUB,902.0,901.0,140.7450110864745,140.78024417314094,14.808724832214764,4.531319910514541,pueblo,KPUB,38.289100646972656,-104.49700164794922,4726.0,12604,8101,142351,52.923651452282144,1.067883817427386,1.0833333333333333,0.0,10459.0,31145.0,131.25,4.0,3.0
PVD,18733.0,18729.0,659.9874552927988,659.5059533344012,13.434763476347635,4.749657252536331,providence,KPVD,41.73260116577149,-71.42040252685547,55.0,11641,44007,1206642,50.192946058091316,4.277717842323653,0.0,0.0,2117409.0,14781.0,150.0,2.0,8.182692307692308
PVU,547.0,545.0,497.8884826325411,497.9651376146789,13.348148148148148,5.558441558441558,provo,KPVU,40.219200134277,-111.72299957275,4497.0,22660,49049,503695,47.2958506224066,1.5563900414937757,0.16666666666666666,0.08333333333333333,80106.0,15213.0,150.0,2.0,1.5
PWM,12137.0,12138.0,497.50638543297356,496.7854671280277,15.271384403984884,4.280766270418199,portland,KPWM,43.64619827,-70.30930328,76.0,20147,23005,206023,45.66887966804978,4.142614107883819,0.0,0.0,1062873.0,12201.0,150.0,2.0,10.093023255813954
RAP,4247.0,4249.0,593.05486225571,593.0809602259355,16.55025065648126,5.9952369611812335,rapid,KRAP,44.0452995300293,-103.05699920654295,3204.0,28519,46103,9034,46.319917012448144,1.5424066390041495,0.6666666666666666,0.16666666666666666,303471.0,12302.0,112.5,2.0,3.8222222222222224
RDD,1169.0,1169.0,199.0,199.0,15.161091549295774,4.491644678979771,redding,KRDD,40.50899887,-122.2929993,505.0,12948,6089,120270,55.65435684647299,3.491701244813278,0.6666666666666666,0.16666666666666666,42775.0,12070.0,150.0,2.0,1.7
RDM,3773.0,3771.0,587.2894248608534,589.3208697958102,16.614147909967844,4.614477211796246,redmond,KRDM,44.254100799999996,-121.15000149999999,3080.0,28488,41017,31695,44.480497925311234,1.823692946058092,0.0,0.0,430562.0,14038.0,125.0,2.0,9.509803921568627
RDU,60724.0,60727.0,648.7556485080034,647.9832364516607,18.10174689506769,5.941503660247848,raleigh,KRDU,35.877601623535156,-78.7874984741211,435.0,6919,37183,1018336,60.331120331950196,3.940207468879668,13.75,0.75,6258101.0,21070.0,133.33333333333334,3.0,9.346153846153847
RFD,673.0,673.0,1194.3967310549776,1194.3967310549776,11.010494752623687,6.244011976047904,rockford,KRFD,42.19540023803711,-89.09719848632812,742.0,15578,17201,285562,48.55352697095431,3.173817427385893,4.083333333333333,0.16666666666666666,106710.0,18203.0,150.0,2.0,3.0
RHI,724.0,726.0,190.0,190.0,21.120786516853933,4.098314606741573,rhinelander,KRHI,45.63119888305664,-89.46749877929688,1624.0,1083,55085,8738,40.554771784232386,2.8002074688796688,0.0,0.0,24477.0,16904.0,116.66666666666667,3.0,1.5
RIC,23224.0,23224.0,521.8225973131243,523.1825266965209,17.705343308690072,6.422022809654319,richmond,KRIC,37.50519943237305,-77.3197021484375,167.0,12233,51760,1059907,58.493360995850665,3.8850622406639,0.0,0.0,2048691.0,20936.0,133.33333333333334,3.0,2.388888888888889
RKS,680.0,680.0,260.0,260.0,15.566121842496285,3.2005943536404162,rock,KRKS,41.59420013,-109.0650024,6764.0,3125,56037,26710,42.49004149377594,0.7653526970954357,0.0,0.0,23020.0,15223.0,112.5,2.0,2.5454545454545454
RNO,18112.0,18110.0,555.2049469964664,555.1810049696301,13.876876042245692,4.519014045411647,reno,KRNO,39.49909973144531,-119.76799774169922,4415.0,11708,32031,433271,49.60165975103737,0.9824896265560162,0.0,0.0,2048916.0,26104.0,150.0,3.0,2.533333333333333
ROA,2463.0,2463.0,371.514413317093,371.514413317093,19.25626043405676,5.928868552412646,roanoke,KROA,37.3255004883,-79.975402832,1175.0,12088,51770,216177,56.902074688796695,3.6404979253112035,0.0,0.0,330063.0,12610.0,150.0,2.0,5.357142857142857
ROC,14388.0,14385.0,435.1736864053378,434.548070907195,15.449709239715702,5.713886500429923,rochester,KROC,43.118900299072266,-77.67240142822266,559.0,9493,36055,711998,48.63651452282158,2.941576763485478,3.3333333333333335,0.5833333333333334,1281908.0,18403.0,133.33333333333334,3.0,5.71875
ROW,1371.0,1371.0,434.47045951859957,434.47045951859957,13.659701492537314,4.6597170513775135,roswell,KROW,33.30160140991211,-104.53099822998048,3671.0,3860,35005,49119,59.886307053941906,1.0946887966804977,0.25,0.08333333333333333,56632.0,30425.0,150.0,3.0,2.0
RST,3257.0,3257.0,280.5010746085355,280.5600245624808,19.02404302435938,4.166403536469845,rochester,KRST,43.90829849243164,-92.5,1317.0,24542,27109,116713,44.62489626556014,3.040414937759336,2.6666666666666665,0.16666666666666666,182509.0,16333.0,150.0,2.0,4.96078431372549
RSW,32351.0,32348.0,988.8432505950357,988.7319154198095,12.90173537150733,5.310692375109553,fort,KRSW,26.53619956970215,-81.75520324707031,30.0,2239,12071,79943,74.95933609958506,4.3080912863070555,17.916666666666668,1.8333333333333333,4602113.0,12000.0,150.0,1.0,13.947368421052632
SAF,1419.0,1420.0,506.9985905567301,506.837323943662,16.591895803183792,4.32514450867052,santa,KSAF,35.617099761999995,-106.08899688700001,6348.0,4102,35049,110078,50.146058091286335,1.1690041493775933,0.4166666666666667,0.08333333333333333,115787.0,20949.0,125.0,3.0,3.4444444444444446
SAN,90699.0,90673.0,1030.1793184048336,1030.0856374003286,16.753239091718612,4.049842467964775,san,KSAN,32.7336006165,-117.190002441,17.0,12999,6073,3210314,63.47053941908712,0.9840248962655602,0.0,0.0,12174224.0,9401.0,200.0,1.0,2.739130434782609
SAT,39575.0,39577.0,789.2739861023373,789.4347221871288,12.288400694019188,4.379269038637985,san,KSAT,29.533700942993164,-98.46980285644531,809.0,4576,48029,2002530,69.6070539419087,2.594647302904564,16.166666666666668,0.8333333333333334,4844427.0,21526.0,133.33333333333334,3.0,15.390243902439025
SAV,15825.0,15826.0,503.1619589257504,502.641096929104,15.28727060501913,5.571576561994173,savannah,KSAV,32.12760162,-81.20210266,50.0,17475,13051,280082,67.27842323651454,3.7873443983402493,8.083333333333334,0.4166666666666667,1356660.0,16353.0,150.0,2.0,5.6571428571428575
SBA,7084.0,7083.0,474.91473743647657,473.6277001270648,16.314199828227885,4.562132721800201,santa,KSBA,34.42620087,-119.8399963,13.0,13570,6083,204034,58.99585062240665,1.3945228215767627,5.916666666666667,0.5,403745.0,14414.0,108.33333333333333,3.0,16.130434782608695
SBN,6943.0,6945.0,436.78914014114935,436.72814974802014,18.965794474492032,5.2798885140090945,south,KSBN,41.70869827270508,-86.31729888916016,799.0,17789,18141,281100,49.59377593360992,3.3963485477178446,3.0,0.08333333333333333,366617.0,18713.0,125.0,3.0,1.1666666666666667
SBP,4840.0,4840.0,381.6931818181818,381.52603305785124,16.880343671416597,4.425041876046901,san,KSBP,35.2368011475,-120.64199829100001,212.0,13430,6079,62398,59.958506224066404,1.2931950207468874,0.0,0.0,235570.0,8600.0,125.0,2.0,4.806451612903226
SCK,747.0,747.0,403.0722891566265,403.0722891566265,8.402159244264507,6.051282051282051,stockton,KSCK,37.894199371338,-121.2379989624,33.0,13253,6077,394467,62.32572614107885,1.1699170124481328,0.0,0.0,98908.0,15104.0,112.5,2.0,1.0
SDF,22904.0,22906.0,548.3704593084177,554.8263337116913,15.462429806578127,7.164178439324391,louisville,KSDF,38.1744,-85.736,501.0,27640,21111,1011696,56.65103734439828,4.357261410788381,32.916666666666664,0.4166666666666667,1877861.0,26679.0,150.0,3.0,8.656565656565656
SEA,140006.0,140001.0,1292.8839692584604,1292.552160341712,20.015091063048065,9.832637816484109,seattle,KSEA,47.44900131225586,-122.30899810791016,433.0,106,53033,3643765,47.88340248962657,6.2428215767634825,11.416666666666666,1.0,24024908.0,40752.0,612.5,4.0,27.854368932038835
SFB,9581.0,9600.0,854.7006575514038,854.811875,14.017187172500524,6.3348040760584094,sanford,KSFB,28.7775993347168,-81.23750305175781,55.0,2026,12117,59317,72.67510373443979,4.153651452282159,7.666666666666667,1.0,1504888.0,22681.0,112.5,4.0,2.210526315789474
SFO,175849.0,175939.0,1213.798719355811,1217.1210135330996,22.46299424117874,8.621350370229294,san,KSFO,37.61899948120117,-122.375,13.0,13741,6081,43299,57.213692946058096,2.2920331950207453,18.833333333333332,1.9166666666666667,27790717.0,38620.0,200.0,4.0,1.0
SGF,8619.0,8618.0,540.4039911822717,540.3382455326062,16.51854045729179,5.8881516587677725,springfield,KSGF,37.24570084,-93.38860321,1268.0,23258,29077,287222,56.21078838174271,3.7518257261410812,0.0,0.0,523108.0,15003.0,150.0,2.0,1.85
SGU,3247.0,3247.0,331.498614105328,331.498614105328,16.044067796610168,3.513405238828968,stgeorge,KSGU,37.0363888889,-113.510305556,2941.0,22811,49053,113906,56.63236514522822,1.238298755186722,0.0,0.0,123060.0,6606.0,100.0,1.0,3.1818181818181817
SHD,662.0,665.0,142.2356495468278,142.08270676691728,15.421705426356588,4.328149300155521,weyers,KSHD,38.2638015747,-78.8964004517,1201.0,12248,51015,2695,53.08755186721991,3.5900000000000003,0.0,0.0,12179.0,6002.0,150.0,1.0,1.0
SHV,6694.0,6694.0,421.80176277263223,421.6809082760681,13.578899361508057,5.509708737864078,shreveport,KSHV,32.44660186767578,-93.82559967041016,258.0,6237,22017,287432,65.72365145228218,4.211659751037344,1.4166666666666667,0.16666666666666666,291136.0,14553.0,175.0,2.0,5.7727272727272725
SJC,54625.0,54580.0,812.2662517162471,811.8837303041407,13.234834490911778,4.477064729047646,san,KSJC,37.36259841918945,-121.9290008544922,62.0,14283,6085,1821899,58.75560165975103,1.9073443983402478,0.0,0.0,7032851.0,26599.0,133.33333333333334,3.0,6.25
SJT,1433.0,1432.0,229.0,229.0,12.668334524660471,3.7189728958630526,san,KSJT,31.35770034790039,-100.49600219726562,1919.0,4520,48451,99890,65.4265560165975,1.9139834024896265,0.0,0.0,55301.0,18390.0,125.0,3.0,4.178571428571429
SLC,113054.0,113116.0,771.8424292815822,772.0409756356307,18.3684341261322,6.813135525545243,salt,KSLC,40.78839874267578,-111.97799682617188,4227.0,22698,49035,1098400,49.691286307053936,1.8131535269709538,39.916666666666664,5.166666666666667,12226730.0,38492.0,150.0,4.0,14.8
SMF,47110.0,47115.0,754.2124814264488,754.0912448264884,12.094693894988678,4.363783899209908,sacramento,KSMF,38.69540023803711,-121.59100341796876,27.0,13048,6113,53512,62.28132780082989,1.7422821576763479,56.333333333333336,7.916666666666667,5907629.0,17201.0,150.0,2.0,10.88888888888889
SMX,170.0,170.0,310.0,310.0,6.8882352941176475,5.152941176470589,santa,KSMX,34.89889908,-120.4570007,261.0,13733,6083,140219,58.99585062240665,1.3945228215767627,1.1666666666666667,0.08333333333333333,23008.0,11434.0,112.5,2.0,3.0
SNA,41639.0,41651.0,791.352241888614,791.0875849319344,13.614138581306513,5.482723601808642,santa,KSNA,33.67570114,-117.86799620000001,56.0,13037,6059,334136,64.65435684647306,0.9464730290456431,0.0,0.0,5201642.0,8587.0,112.5,2.0,16.566666666666666
SPI,1811.0,1812.0,398.0441744892325,397.9205298013245,14.609880749574106,4.289756649688738,springfield,KSPI,39.84410095,-89.67790222,598.0,15928,17167,159394,53.248132780082955,3.293112033195022,2.5,0.3333333333333333,76950.0,20299.0,150.0,3.0,1.6666666666666667
SPS,1058.0,1059.0,113.0,113.0,15.326790971540726,7.9520078354554355,wichita,KSPS,33.98880005,-98.49189758,1019.0,4407,48485,99617,64.00456431535275,2.427883817427385,0.0,0.0,38026.0,36125.0,187.5,4.0,9.666666666666666
SRQ,6341.0,6341.0,705.5521211165432,705.4879356568365,13.319308910574309,4.129803859033647,sarasota,KSRQ,27.39539909362793,-82.55439758300781,30.0,2492,12115,706245,73.62904564315352,4.368132780082988,3.0833333333333335,0.75,685001.0,14509.0,150.0,2.0,12.520833333333334
STC,145.0,145.0,1314.751724137931,1314.751724137931,11.63888888888889,9.145833333333334,stcloud,KSTC,45.54660034179688,-94.05989837646484,1031.0,24756,27145,114225,43.09253112033196,2.473360995850623,0.25,0.0,22464.0,10000.0,112.5,2.0,1.8888888888888888
STL,66197.0,66200.0,750.6235630013445,749.5956495468278,12.142828669988502,4.645208732286481,louis,KSTL,38.74869918823242,-90.37000274658205,618.0,23638,29510,2078283,56.6970954356846,3.5189626556016584,0.0,0.0,7631953.0,36625.0,162.5,4.0,26.166666666666668
STS,1504.0,1503.0,303.2253989361702,302.9620758483034,16.368707482993198,4.3175675675675675,santa,KSTS,38.50899887,-122.8130035,128.0,14149,6097,321908,57.45518672199175,3.3976348547717827,0.0,0.0,217480.0,11202.0,125.0,2.0,3.111111111111111
SUN,1274.0,1277.0,334.8767660910518,334.6374314800313,15.435008665511265,2.8072916666666665,hailey,KSUN,43.50439835,-114.2959976,5318.0,19830,16013,10875,42.67593360995851,1.4729875518672193,0.25,0.0,93280.0,6952.0,100.0,1.0,2.4347826086956523
SUX,1189.0,1189.0,508.6753574432296,508.6753574432296,13.709565217391305,5.114186851211072,sioux,KSUX,42.40259933,-96.38439941,1098.0,18910,19193,106279,48.440248962655595,2.552240663900417,0.6666666666666666,0.16666666666666666,44779.0,15602.0,150.0,2.0,1.0
SWF,1791.0,1789.0,818.6242322724735,818.3219675796535,15.193714285714286,5.655447803764974,newburgh,KSWF,41.50410079956055,-74.10479736328125,491.0,8827,36071,28363,49.96970954356844,3.983734439834026,2.1666666666666665,0.5,354869.0,17824.0,150.0,2.0,2.3461538461538463
SYR,13818.0,13821.0,470.9623679258938,471.07300484769553,18.323245908989016,4.748786135803392,syracuse,KSYR,43.11119842529297,-76.1063003540039,421.0,9085,36067,2971,47.054771784232365,3.695228215767634,0.0,0.0,1139568.0,19764.0,150.0,3.0,2.6607142857142856
TLH,6122.0,6121.0,389.12103887618423,389.1189348145728,13.195652173913043,4.4797060297310844,tallahassee,KTLH,30.396499633789066,-84.35030364990234,81.0,2524,12073,253030,67.98547717842327,4.457925311203321,1.4166666666666667,0.3333333333333333,384136.0,14076.0,150.0,2.0,7.0
TOL,2080.0,2080.0,429.575,429.2230769230769,11.723298559364133,3.7365032194155523,toledo,KTOL,41.58679962,-83.80780029,683.0,22161,39095,488672,51.16597510373442,2.974190871369294,3.1666666666666665,0.16666666666666666,123541.0,16199.0,150.0,2.0,1.0
TPA,74526.0,74523.0,902.2663097442503,902.1095232344377,13.341092842802105,5.149608220589432,tampa,KTPA,27.975500106811523,-82.533203125,26.0,2065,12057,2804240,72.92531120331945,4.4875933609958505,12.166666666666666,1.5,10368514.0,26301.0,150.0,3.0,27.948051948051948
TRI,3062.0,3061.0,216.79425212279557,216.84155504737015,16.00727994705493,4.43069798213695,bristol,KTRI,36.47520065307617,-82.40740203857422,1519.0,8779,47163,69865,56.57800829875518,3.7974688796680494,0.0,0.0,200086.0,12472.0,150.0,2.0,3.23943661971831
TTN,2603.0,2608.0,763.6277372262774,763.7595858895705,14.873161033797217,7.487609912070344,trenton,KTTN,40.27669906616211,-74.8134994506836,213.0,3174,34021,296869,54.1800829875519,3.9985892116182598,1.5,0.16666666666666666,404349.0,10806.0,150.0,2.0,1.1428571428571428
TUL,16925.0,16927.0,532.3378434268833,532.4053287646955,14.869838044582561,4.861366622864652,tulsa,KTUL,36.19839859008789,-95.88809967041016,677.0,21235,40143,672054,60.39834024896271,3.388257261410787,5.333333333333333,0.8333333333333334,1482908.0,23472.0,166.66666666666666,3.0,8.620253164556962
TUS,18223.0,18224.0,697.6559841957966,697.5725965759439,14.470884255930985,4.522720998288333,tucson,KTUS,32.116100311279304,-110.94100189208984,2643.0,19436,4019,868391,68.51908713692949,0.9154771784232365,4.0,0.25,1753227.0,26404.0,125.0,3.0,3.3333333333333335
TVC,3925.0,3923.0,273.9676433121019,273.91562579658427,16.38997650743931,4.922796035472092,traverse,KTVC,44.74140167236328,-85.58219909667969,624.0,25005,26055,49806,45.29751037344397,2.714854771784233,1.4166666666666667,0.0,247324.0,15084.0,125.0,3.0,3.757575757575758
TWF,1271.0,1172.0,190.00157356412274,175.0,13.522870662460567,3.3341880341880343,twin,KTWF,42.48180008,-114.487999,4154.0,19950,16083,54455,48.169294605809114,1.0332365145228224,0.0,0.0,47084.0,11927.0,112.5,2.0,2.2
TXK,1227.0,1228.0,181.0,181.3257328990228,14.810008481764207,3.589527027027027,texarkana,KTXK,33.45370101928711,-93.99099731445312,390.0,15076,5091,30259,64.29460580912863,4.218755186721991,0.0,0.0,37599.0,11801.0,122.0,2.0,2.411764705882353
TYR,1442.0,1442.0,102.0,102.0,14.788252356780276,4.009433962264151,tyler,KTYR,32.35409927368164,-95.40239715576172,544.0,5566,48423,141116,65.56514522821575,3.840995850622406,0.6666666666666666,0.08333333333333333,48532.0,17250.0,150.0,3.0,1.6842105263157894
TYS,15976.0,15977.0,459.82861792689033,459.28178005883456,16.011348422059292,4.551154483990305,knoxville,KTYS,35.81100082,-83.99400329999999,981.0,8569,47093,585249,58.838589211618284,4.469751037344398,3.4166666666666665,0.16666666666666666,1069565.0,18005.0,150.0,2.0,2.588235294117647
UIN,937.0,937.0,217.00533617929563,217.00533617929563,14.801385681293302,4.159770114942528,quincy,KUIN,39.94269943,-91.19460297,768.0,16305,17001,44860,53.097095435684636,3.277468879668049,0.0,0.0,11633.0,17622.0,150.0,3.0,1.0
VLD,1039.0,1039.0,208.0,208.0,16.580582524271843,4.13495145631068,valdosta,KVLD,30.78249931335449,-83.27670288085938,203.0,17227,13185,79294,66.98381742738587,4.138381742738589,0.25,0.16666666666666666,44609.0,17236.0,108.33333333333333,3.0,1.0
VPS,7830.0,7831.0,487.5049808429119,487.5478227557145,14.938339199582844,8.221584984358707,valparaiso,KVPS,30.4832,-86.525398,87.0,2510,12091,4946,67.16804979253112,5.02045643153527,0.0,0.0,683759.0,22017.0,300.0,2.0,3.033333333333333
WYS,239.0,239.0,273.0,273.0,14.94560669456067,4.03765690376569,yellowstone,KWYS,44.68840027,-111.11799620000001,6649.0,26356,30031,1365,40.18630705394191,2.0044398340248963,0.0,0.0,8200.0,8399.0,150.0,1.0,3.4285714285714284
XNA,12571.0,12574.0,603.0770026250894,604.1269285827899,15.636134999188707,6.6056212538474,bentonville,KXNA,36.281898,-94.30680100000001,1287.0,15451,5007,49298,58.123651452282175,3.9078423236514532,0.0,0.0,759127.0,8800.0,150.0,1.0,1.5555555555555556
YNG,2.0,2.0,894.0,894.0,38.5,11.5,youngstown,KYNG,41.26070023,-80.67910004,1192.0,21828,39099,373728,50.02697095435689,3.509460580912863,0.0,0.0,2636.0,17505.0,120.0,3.0,1.0
