,EventId,EventDate,Location,Country,Latitude,Longitude,AirportCode,InjurySeverity,AircraftDamage,AircraftCategory,NumberOfEngines,EngineType,Schedule,TotalUninjured,TotalMinorInjuries,TotalSeriousInjuries,TotalFatalInjuries,WeatherCondition,BroadPhaseOfFlight,RegistrationNumber,PurposeOfFlight
0,20200128X02229,01/22/2020,"Minot, ND",United States,48.232223,-101.293333,2ND4,Non-Fatal,Substantial,Helicopter,1,Turbo Shaft,,1,,,,VMC,LANDING,N947LH,Business
1,20191120X01106,11/20/2019,"San Marcos, TX",United States,29.900000,-97.852500,KHYI,Fatal(1),Destroyed,Airplane,1,Reciprocating,,,,,1,IMC,TAKEOFF,N88855,Business
2,20191031X31506,10/31/2019,"New Braunfels, TX",United States,29.705833,-98.043333,BAZ,Non-Fatal,Minor,Airplane,,,,1,,1,,VMC,,N850BK,Business
3,20191023X23030,10/23/2019,"Hebbronville, TX",United States,27.372500,-98.633334,N/A,Fatal(2),Substantial,Helicopter,1,Reciprocating,,1,,1,2,VMC,MANEUVERING,N74512,Business
4,20191023X23030,10/23/2019,"Hebbronville, TX",United States,27.372500,-98.633334,N/A,Fatal(2),Destroyed,Helicopter,1,Reciprocating,,1,,1,2,VMC,MANEUVERING,N7189D,Business
5,20191019X04853,10/19/2019,"Albuquerque, NM",United States,35.084444,-106.650278,,Non-Fatal,Substantial,Balloon,1,None,,13,,,,VMC,LANDING,N275WB,Business
6,20191021X62154,10/16/2019,"Augusta, GA",United States,33.371945,-81.971667,AGS,Non-Fatal,,Airplane,2,Turbo Fan,,,,1,,VMC,TAXI,N307KP,Business
7,20191005X82852,10/05/2019,"Kokomo, IN",United States,40.475000,-86.063333,OKK,Fatal(1),Destroyed,Airplane,2,,,,,,1,VMC,MANEUVERING,N326CW,Business
8,20191003X13056,10/03/2019,"Lansing, MI",United States,42.780278,-84.606111,LAN,Fatal(5),Substantial,Airplane,1,Turbo Prop,,,,1,5,IMC,APPROACH,N700AQ,Business
9,20190903X30852,09/03/2019,"Mack, CO",United States,39.268056,-108.864167,10CO,Non-Fatal,Substantial,Airplane,1,Reciprocating,,1,,,,VMC,CLIMB,N2XF,Business
10,20190829X34852,08/29/2019,"Olney, TX",United States,33.350833,-98.819167,ONY,Non-Fatal,Substantial,Airplane,1,Turbo Prop,,,1,,,VMC,TAKEOFF,N8517Q,Business
11,20190828X75204,08/27/2019,"San Diego, CA",United States,32.826111,-116.972500,SEE,Non-Fatal,Substantial,Helicopter,1,Turbo Shaft,,2,,,,VMC,LANDING,N218GH,Business
12,20190916X44957,08/23/2019,"Lawton, OK",United States,34.604167,-98.395555,,Non-Fatal,,Balloon,,None,,4,,1,,VMC,LANDING,N7172D,Business
13,20190818X75840,08/17/2019,"Lagrangeville, NY",United States,41.700000,-73.729167,44N,Fatal(2),Destroyed,Airplane,2,Reciprocating,,,1,3,2,VMC,TAKEOFF,N303TL,Business
14,20190815X74831,08/15/2019,"Elizabethton, TN",United States,36.367223,-82.181667,0A9,Non-Fatal,Destroyed,Airplane,2,Turbo Fan,,2,3,,,VMC,LANDING,N8JR,Business
15,20190812X01150,08/09/2019,"Galt, CA",United States,38.258056,-121.375000,,Non-Fatal,,Balloon,,,,,,1,,VMC,OTHER,N2027S,Business
16,20190813X55350,08/08/2019,"Lubbock, TX",United States,32.845833,-96.850833,,Non-Fatal,,Airplane,2,Turbo Fan,,7,2,1,,VMC,TAKEOFF,N237QS,Business
17,20191028X02005,08/07/2019,"Hamburg, Germany",Germany,,,EDDH,Incident,Minor,Airplane,2,Turbo Fan,,5,,,,UNK,TAKEOFF,,Business
18,20190806X45857,08/05/2019,"Wolf Point, MT",United States,48.435833,-105.760833,,Fatal(2),Destroyed,Airplane,1,Reciprocating,,,,,2,VMC,APPROACH,N3469R,Business
19,20190801X94426,08/01/2019,"Novato, CA",United States,38.141111,-122.555833,DVO,Non-Fatal,Substantial,Airplane,1,Turbo Prop,,2,,,,VMC,LANDING,N234SB,Business
20,20190804X03438,08/01/2019,"Hume, NY",United States,42.475834,-78.137222,,Non-Fatal,,Balloon,0,,,8,,1,,VMC,LANDING,N6533Q,Business
21,20190813X74443,07/31/2019,"Kenai, AK",United States,60.589444,-152.157500,3AK5,Non-Fatal,Substantial,Airplane,2,Reciprocating,,2,,,,VMC,LANDING,N59314,Business
22,20190726X01834,07/27/2019,"Sparta, TN",United States,36.058889,-85.527778,SRB,Non-Fatal,Substantial,Airplane,1,Reciprocating,,7,,,,VMC,TAKEOFF,N12KW,Business
23,20190728X20826,07/27/2019,"Lake, MI",United States,43.772223,-84.946111,,Non-Fatal,Substantial,Airplane,1,Reciprocating,,1,,1,,VMC,TAKEOFF,N663BA,Business
24,20190722X23001,07/22/2019,"Boise, ID",United States,43.561111,-116.218334,BOI,Non-Fatal,Substantial,Airplane,2,Reciprocating,,3,,,,VMC,LANDING,N7947Q,Business
25,20190630X33829,06/30/2019,"Addison, TX",United States,32.966111,-96.832778,ADS,Fatal(10),Destroyed,Airplane,2,Turbo Prop,,,,,10,VMC,TAKEOFF,N534FF,Business
26,20190628X80552,06/27/2019,"Janesville, WI",United States,42.644166,-88.960556,,Non-Fatal,Minor,Airplane,2,Turbo Jet,,3,,1,,VMC,,N318RW,Business
27,20190605X14700,06/05/2019,"Sedona, AZ",United States,34.823889,-111.907500,,Non-Fatal,,Balloon,,,,17,,1,,VMC,LANDING,N3004S,Business
28,20190513X03825,05/12/2019,"Frankfort, MI",United States,,,,Fatal(2),,Airplane,1,Reciprocating,,,,,2,VMC,,N1561Z,Business
29,20190512X92801,05/11/2019,"Mount Holly, NJ",United States,39.941944,-74.848611,VAY,Non-Fatal,Substantial,Airplane,2,Turbo Prop,,2,,,,VMC,TAKEOFF,N51DM,Business
30,20190509X05207,05/08/2019,"Moose Lake, MN",United States,46.423334,-92.805556,KMZH,Fatal(1),Substantial,Airplane,1,Reciprocating,,,,,1,IMC,TAKEOFF,N111JP,Business
31,20190505X10250,05/05/2019,"Santa Rosa, NM",United States,34.940000,-104.667778,SXU,Fatal(2),Substantial,Airplane,2,,,,,,2,VMC,CRUISE,N102SN,Business
32,20190422X20140,04/22/2019,"Kerrville, TX",United States,30.037500,-99.185833,ERV,Fatal(6),Substantial,Airplane,2,Reciprocating,,,,,6,VMC,APPROACH,N501CE,Business
33,20190414X23408,04/14/2019,"St. Helena, CA",United States,38.443333,-122.046666,,Non-Fatal,Minor,Balloon,,,,14,2,1,,,CRUISE,N355WC,Business
34,20190401X25202,04/01/2019,"Napa, CA",United States,38.375000,-122.336666,,Non-Fatal,,Balloon,,,,17,2,1,,,,N6954Y,Business
35,20190317X93630,03/17/2019,"Plain City, OH",United States,40.188333,-83.204444,,Fatal(1),Destroyed,Airplane,2,Reciprocating,,,,,1,IMC,,N424TW,Business
36,20190312X50739,03/12/2019,"Latrobe, PA",United States,40.273056,-79.408333,LBE,Non-Fatal,Substantial,Airplane,2,Turbo Prop,,4,,,,VMC,LANDING,N945WS,Business
37,20190222X72357,02/21/2019,"Stallion Springs, CA",United States,35.047500,-118.596944,,Fatal(3),Substantial,Airplane,2,Reciprocating,,,,,3,,UNKNOWN,N533Q,Business
38,20190220X00053,02/20/2019,"Tulsa, OK",United States,36.039722,-95.982500,RVS,Non-Fatal,Substantial,Airplane,1,Reciprocating,,1,,,,VMC,GO-AROUND,N381DE,Business
39,20190211X15851,02/11/2019,"Richmond, IN",United States,39.750833,-84.852222,RID,Non-Fatal,Substantial,Airplane,2,Turbo Fan,,3,,,,IMC,LANDING,N750TA,Business
40,20190131X52154,01/29/2019,"Kake, AK",United States,56.995000,-134.467223,PAFE,Fatal(3),Substantial,Airplane,,Turbo Prop,,,,,3,,APPROACH,N13LY,Business
41,20190112X63300,01/12/2019,"Uvalde, TX",United States,29.461389,-100.114167,01TX,Non-Fatal,Substantial,Airplane,,,,9,,,,VMC,LANDING,N813WT,Business
42,20181130X80724,11/30/2018,"Fargo, ND",United States,46.920556,-96.815833,FAR,Non-Fatal,Substantial,Airplane,2,Turbo Jet,,2,9,,,IMC,APPROACH,N941JM,Business
43,20181130X31617,11/30/2018,"Memphis, IN",United States,38.475278,-85.811111,,Fatal(3),Destroyed,Airplane,,,,,,,3,VMC,TAKEOFF,N525EG,Business
44,20181113X12655,11/10/2018,"Lihue, HI",United States,21.966945,-159.508333,,Non-Fatal,Substantial,Helicopter,1,Reciprocating,,3,,,,VMC,CRUISE,N445KP,Business
45,20181031X03329,10/31/2018,"Gainesville, FL",United States,29.690000,-82.271667,GNV,Non-Fatal,Substantial,Airplane,2,Reciprocating,,4,,,,VMC,LANDING,N5YB,Business
46,20181023X52955,10/22/2018,"Kaneohe, HI",United States,21.467500,-157.803889,PHNG,Non-Fatal,Substantial,Helicopter,1,Reciprocating,,,,3,,VMC,,N4132H,Business
47,20180925X10105,09/25/2018,"Oscoda, MI",United States,44.416667,-83.485833,KOSC,Fatal(1),Destroyed,Airplane,2,Turbo Prop,,,,,1,IMC,APPROACH,N241CK,Business
48,20180924X40449,09/20/2018,"Igiugig, AK",United States,59.325000,-155.900833,,Non-Fatal,Substantial,Airplane,1,Reciprocating,,6,1,,,VMC,TAKEOFF,N121AK,Business
49,20180906X21852,09/06/2018,"Laramie, WY",United States,,,LAR,Non-Fatal,Substantial,Airplane,,,,1,,,,,CLIMB,N376J,Business
50,20180906X35852,09/05/2018,"Port Huron, MI",United States,42.903611,-82.550278,KPHN,Fatal(1),Substantial,Airplane,2,Reciprocating,,,,,1,VMC,APPROACH,C-GLKX,Business
51,20180828X00933,08/28/2018,"Hartford, CT",United States,41.737500,-72.648611,HFD,Non-Fatal,Substantial,Airplane,1,Turbo Prop,,4,,,,VMC,LANDING,N178DB,Business
52,20180823X35503,08/20/2018,"McGrath, AK",United States,62.797500,-152.930834,,Non-Fatal,Substantial,Airplane,1,Reciprocating,,2,,,,VMC,TAKEOFF,N6727A,Business
53,20180810X01803,08/10/2018,"Driggs, ID",United States,,,KDIJ,Incident,,Balloon,,,,3,,,,VMC,CLIMB,N1410C,Business
54,20180805X00700,08/05/2018,"Santa Ana, CA",United States,33.696111,-117.884444,SNA,Fatal(5),Substantial,Airplane,2,Reciprocating,,,,,5,VMC,APPROACH,N727RP,Business
55,20180803X63845,08/03/2018,"Hartsel, CO",United States,39.005833,-105.576945,,Fatal(1),,Balloon,,,,9,,1,1,VMC,LANDING,N2025J,Business
56,20180802X75952,08/01/2018,"Wilmington, NC",United States,34.226389,-77.944722,,Non-Fatal,Substantial,Airplane,2,Turbo Prop,,6,,,,VMC,CRUISE,N557AP,Business
57,20180809X34644,07/23/2018,"Cork, Ireland",Ireland,51.841389,-8.491111,,Non-Fatal,Substantial,Airplane,2,Turbo Fan,,8,,,,,TAKEOFF,N752TX,Business
58,20180721X41413,07/21/2018,"Burnet, TX",United States,30.737222,-98.238611,BMQ,Non-Fatal,Destroyed,Airplane,,Reciprocating,,6,1,6,,VMC,TAKEOFF,N47HL,Business
59,20180716X75258,07/16/2018,"Manley Hot Springs, AK",United States,64.988889,-150.646944,MLY,Non-Fatal,Substantial,Airplane,2,Reciprocating,,,2,,,VMC,LANDING,N1822M,Business
60,20180626X55142,06/26/2018,"Phoenix, AZ",United States,33.784166,-112.137777,DVT,Non-Fatal,Substantial,Airplane,1,Reciprocating,,2,1,,,VMC,LANDING,N154ME,Business
61,20180626X42919,06/26/2018,"Encino, TX",United States,26.757222,-97.996944,,Non-Fatal,Substantial,Helicopter,1,Reciprocating,,,2,,,VMC,MANEUVERING,N122CH,Business
62,20180725X25209,06/17/2018,"Sterling City, TX",United States,31.833056,-100.980834,,Non-Fatal,Substantial,Helicopter,1,Reciprocating,,1,,,,VMC,,N410MM,Business
63,20180615X31415,06/15/2018,"Rotan, TX",United States,32.911944,-100.540833,,Fatal(2),Destroyed,Airplane,1,Reciprocating,,,,,2,VMC,MANEUVERING,N734BS,Business
64,20180611X95129,06/09/2018,"Moose, WY",United States,43.724723,-110.819167,,Fatal(2),Destroyed,Glider,0,,,,,,2,VMC,CRUISE,N317BA,Business
65,20180611X23020,06/09/2018,"Sitka, AK",United States,57.171667,-135.276667,,Fatal(2),Substantial,Airplane,1,Reciprocating,,,,,2,UNK,MANEUVERING,N1203A,Business
66,20180530X50125,05/30/2018,"Melville, NY",United States,40.768334,-73.390277,FRG,Fatal(1),Substantial,Airplane,1,Reciprocating,,,,,1,VMC,TAKEOFF,N62382,Business
67,20180527X00947,05/25/2018,"Santa Fe, NM",United States,35.293611,-105.581945,,Fatal(1),Substantial,Airplane,1,Reciprocating,,,,,1,VMC,,N79091,Business
68,20180519X83954,05/19/2018,"Stoneburg, TX",United States,33.706944,-97.916667,,Non-Fatal,Destroyed,Helicopter,1,Turbo Shaft,,,,4,,VMC,,N369GK,Business
69,20180524X45253,05/09/2018,"Barra da Tijuca, Brazil",Brazil,-23.013333,-76.400000,,Fatal(1),Substantial,Helicopter,1,Turbo Shaft,,,3,,1,VMC,,,Business
70,20180529X20553,05/06/2018,"Gainesville, GA",United States,34.273611,-83.831389,GVL,Non-Fatal,Substantial,Airplane,2,Reciprocating,,1,,,,VMC,LANDING,N406PA,Business
71,20180504X25824,05/04/2018,"Sisters, OR",United States,44.304444,-121.539166,6K5,Non-Fatal,Substantial,Airplane,2,Reciprocating,,3,,,,VMC,LANDING,N222BD,Business
72,20180503X00840,05/02/2018,"Cacao, French Guiana",French Guiana,4.327778,-52.622500,,Fatal(2),Substantial,Helicopter,,,,,,1,2,,,,Business
73,20180430X05547,04/30/2018,"Borrego Springs, CA",United States,33.220278,-116.276667,PSP,Non-Fatal,Substantial,Helicopter,1,Reciprocating,,4,,,,VMC,,N423ML,Business
74,20180430X30445,04/29/2018,"Newark, OH",United States,40.130000,-82.290000,,Non-Fatal,Substantial,Helicopter,1,Turbo Shaft,,2,,,,VMC,MANEUVERING,N175JL,Business
75,20180403X00427,04/02/2018,"Marion, IN",United States,40.490833,85.679723,MZZ,Fatal(2),Substantial,Airplane,,Turbo Jet,,5,,,2,VMC,LANDING,N511AC,Business
76,20180328X44355,03/28/2018,"Cave Creek, AZ",United States,33.798055,-112.006389,,Non-Fatal,Destroyed,Balloon,0,None,,13,,,,VMC,,N64EX,Business
77,20180324X95533,03/24/2018,"Wesley Chapel, FL",United States,,,,Non-Fatal,Substantial,Balloon,,,,1,2,,,VMC,MANEUVERING,N1517H,Business
78,20180312X34739,03/10/2018,"Mount Pleasant, MI",United States,43.621667,-84.737222,MOP,Non-Fatal,Substantial,Airplane,2,Turbo Jet,,9,,,,VMC,LANDING,N500MP,Business
79,20180311X63322,03/08/2018,"Temple, TX",United States,31.000000,97.000000,TPL,Non-Fatal,Destroyed,Airplane,1,Reciprocating,,1,1,,,VMC,,N60JN,Business
80,20180226X31732,02/24/2018,"Woodland, CA",United States,38.593055,-121.838889,,Non-Fatal,Substantial,Helicopter,1,Reciprocating,,,1,,,VMC,OTHER,N630ML,Business
81,20180222X31345,02/22/2018,"Rossville, IN",United States,40.464722,-86.612778,,Fatal(3),Destroyed,Airplane,,Turbo Prop,,,,,3,IMC,CLIMB,N771XW,Business
82,20180214X43741,02/08/2018,"Batesville, AR",United States,,,BVX,Unavailable,Substantial,Airplane,,,,,,,,,DESCENT,N4654D,Business
83,20180129X74948,01/29/2018,"Farmington, PA",United States,39.791944,-79.478611,,Non-Fatal,Substantial,Airplane,1,Reciprocating,,,1,,,IMC,,N34VF,Business
84,20171114X52018,11/12/2017,"Grayslake, IL",United States,42.324167,-88.080278,C81,Non-Fatal,Substantial,Airplane,1,Reciprocating,,1,,,,IMC,APPROACH,N5300A,Business
85,20170916X35842,09/16/2017,"Ancho, NM",United States,33.911944,-105.526945,,Fatal(1),Destroyed,Helicopter,1,Turbo Shaft,,,,,1,VMC,CRUISE,N213TV,Business
86,20180315X11140,09/14/2017,"Statesville, NC",United States,35.765000,-80.953889,SVH,Non-Fatal,Substantial,Airplane,2,Reciprocating,,4,,,,VMC,,N2182L,Business
87,20170914X44755,09/09/2017,"McKinney, TX",United States,33.176389,-96.589166,KTKI,Non-Fatal,Substantial,Airplane,2,Reciprocating,,2,,,,VMC,LANDING,N5870M,Business
88,20170911X42141,09/09/2017,"Prairie du Chien, WI",United States,43.021945,-91.124445,PDC,Non-Fatal,Substantial,Airplane,1,Reciprocating,,1,,,,VMC,CRUISE,N299CA,Business
89,20170925X80437,09/04/2017,"Kodiak, AK",United States,57.780834,-152.391389,T44,Non-Fatal,Substantial,Airplane,,,,4,,,,VMC,TAKEOFF,N16GP,Business
90,20170905X32700,09/02/2017,"Burnet, TX",United States,30.791666,-98.232778,,Non-Fatal,Substantial,Helicopter,,Turbo Shaft,,1,1,1,,VMC,MANEUVERING,N50MP,Business
91,20170828X23633,08/28/2017,"Ellabell, GA",United States,32.239444,-81.439166,,Fatal(3),Destroyed,Airplane,1,Reciprocating,,,,,3,VMC,CLIMB,N87RY,Business
92,20170821X20801,08/18/2017,"Aniak, AK",United States,61.581667,-159.543333,ANI,Non-Fatal,Substantial,Airplane,1,Reciprocating,,4,,,,VMC,TAXI,N92DC,Business
93,20170817X42147,08/17/2017,"Yerington, NV",United States,39.003611,-119.157778,O43,Non-Fatal,Substantial,Airplane,1,Reciprocating,,1,,,,VMC,LANDING,N687BP,Business
94,20170821X51710,08/16/2017,"Talkeetna, AK",United States,62.696389,-148.918056,AK61,Non-Fatal,Substantial,Airplane,1,Turbo Prop,,1,,,,VMC,LANDING,N32LF,Business
95,20170731X32913,07/31/2017,"Chandler, AZ",United States,33.154167,-111.926945,,Incident,Minor,Airplane,1,Reciprocating,,4,,,,VMC,CRUISE,N8725,Business
96,20170724X70559,07/22/2017,"Austin, TX",United States,30.420556,-97.910278,N/A,Non-Fatal,Substantial,Airplane,1,Reciprocating,,1,2,,,VMC,TAKEOFF,N3119D,Business
97,20170721X55655,07/21/2017,"Van Nuys, CA",United States,34.160278,-118.461667,VNY,Non-Fatal,Substantial,Helicopter,1,Reciprocating,,,1,3,,VMC,,N3254E,Business
98,20170717X15023,07/17/2017,"Mesa, AZ",United States,33.469167,-111.713056,FFZ,Fatal(2),Substantial,Airplane,1,Turbo Prop,,,,,2,VMC,APPROACH,N571JM,Business
99,20170713X12858,07/13/2017,"Tyler, TX",United States,32.344166,-95.405833,KTYR,Fatal(2),Destroyed,Airplane,2,Turbo Prop,,,,,2,VMC,TAKEOFF,N47GW,Business
100,20170718X24849,07/11/2017,"Friday Harbor, WA",United States,48.521945,-123.024445,FHR,Non-Fatal,Substantial,Airplane,1,Reciprocating,,1,,,,VMC,LANDING,N2714D,Business
101,20170821X11412,07/04/2017,"Hamilton, OH",United States,39.363889,-84.525556,KHAO,Non-Fatal,Substantial,Airplane,1,Reciprocating,,3,,,,VMC,LANDING,N17XK,Business
102,20170718X25017,06/15/2017,"Van Nuys, CA",United States,34.211944,-118.490555,VNY,Non-Fatal,Substantial,Airplane,1,Reciprocating,,1,,,,VMC,LANDING,N2537F,Business
103,20170609X40127,06/09/2017,"Douglas, WY",United States,42.836666,-105.409722,,Non-Fatal,Substantial,Helicopter,1,Reciprocating,,3,,1,,VMC,LANDING,N590GG,Business
104,20170604X12618,06/03/2017,"Dimmitt, TX",United States,34.420556,-102.512222,,Fatal(1),Substantial,Helicopter,1,Reciprocating,,,,,1,VMC,MANEUVERING,N7091F,Business
105,20170602X34531,06/02/2017,"San Carlos, CA",United States,37.511944,-122.249444,SQL,Non-Fatal,Substantial,Airplane,1,Reciprocating,,3,,,,VMC,LANDING,N6259T,Business
106,20170526X63223,05/25/2017,"Peach Springs, AZ",United States,35.984722,-113.817223,1G4,Non-Fatal,Substantial,Helicopter,1,Turbo Shaft,,1,,,,VMC,STANDING,N153GC,Business
107,20170521X20242,05/20/2017,"Canon City, CO",United States,38.290000,-105.190000,,Non-Fatal,Substantial,Helicopter,1,Turbo Shaft,,5,,,,VMC,APPROACH,N778TL,Business
108,20170508X45426,05/08/2017,"Lake Berryessa, CA",United States,38.540277,-122.142777,,Fatal(2),Substantial,Airplane,1,Reciprocating,,,,,2,VMC,MANEUVERING,N184BA,Business
109,20170425X32358,04/22/2017,"Park City, UT",United States,40.752222,-111.566945,,Non-Fatal,Substantial,Balloon,0,None,,9,,,,VMC,LANDING,N245DK,Business
110,20170419X01252,04/17/2017,"Cascais, Portugal",Portugal,38.714722,-9.346111,LPCS,Fatal(5),Destroyed,Airplane,2,Turbo Prop,,,,,5,VMC,TAKEOFF,,Business
111,20170417X91628,04/07/2017,"Greensburg, IN",United States,39.326945,-85.522500,I34,Non-Fatal,Substantial,Airplane,1,Reciprocating,,2,1,,,VMC,APPROACH,N2389A,Business
112,20170403X04525,04/01/2017,"Key Largo, FL",United States,25.350000,-80.300000,,Non-Fatal,Substantial,Airplane,1,Reciprocating,,2,,,,VMC,LANDING,N672BA,Business
113,20170324X05532,03/24/2017,"Marietta, GA",United States,34.100000,-84.320000,,Fatal(1),Destroyed,Airplane,2,Turbo Fan,,,,,1,VMC,MANEUVERING,N8DX,Business
114,20170311X85300,03/11/2017,"Reno, NV",United States,39.499166,-119.768056,RNO,Non-Fatal,Substantial,Airplane,2,Reciprocating,,1,,,,VMC,LANDING,N301FW,Business
115,20170320X31039,03/07/2017,"Laramie, WY",United States,41.313333,-105.672778,LAR,Non-Fatal,Substantial,Airplane,1,Reciprocating,,3,,,,VMC,LANDING,N703TP,Business
116,20170228X14333,02/27/2017,"Bellingham, WA",United States,48.791944,-122.534722,BLI,Non-Fatal,Substantial,Airplane,1,Turbo Prop,,1,,,,IMC,TAKEOFF,CGWVS,Business
117,20170222X75136,02/20/2017,"Albuquerque, NM",United States,35.064722,-106.628056,ABQ,Non-Fatal,Substantial,Balloon,,,,10,,,,VMC,APPROACH,N709TC,Business
118,20170207X10221,02/02/2017,"Ellendale, MN",United States,43.898055,-93.348611,,Non-Fatal,Substantial,Airplane,1,Reciprocating,,,,1,,VMC,CRUISE,N9149V,Business
119,20170201X04529,01/31/2017,"Armstrong, TX",United States,26.795277,-97.952500,,Non-Fatal,Substantial,Helicopter,1,Reciprocating,,1,,,,VMC,TAKEOFF,N883KC,Business
120,20170117X15227,01/16/2017,"Howell, MI",United States,42.627223,-83.973611,OZW,Non-Fatal,Substantial,Airplane,2,Turbo Fan,,,,1,,VMC,LANDING,N525PZ,Business
121,20170113X00618,01/11/2017,"Green Bay, WI",United States,44.484722,-88.129723,GRB,Non-Fatal,Substantial,Airplane,1,Reciprocating,,1,,,,VMC,,C-GTBI,Business
122,20161205X91704,12/04/2016,"Gunnison, CO",United States,38.534444,-106.931667,GUC,Non-Fatal,Substantial,Airplane,2,Turbo Fan,,1,,,,VMC,LANDING,N332SE,Business
123,20161128X10943,11/22/2016,"San Diego, CA",United States,32.813056,-117.137500,MYF,Non-Fatal,Substantial,Airplane,1,Reciprocating,,5,,,,VMC,TAXI,N3242,Business
124,20161103X50742,10/31/2016,"Baton Rouge, LA",United States,30.531389,-91.150833,KBTR,Non-Fatal,Substantial,Airplane,1,Reciprocating,,2,,,,VMC,STANDING,N454RK,Business
125,20161025X01520,10/23/2016,"Kirksville, MO",United States,40.093333,-92.544444,IRK,Non-Fatal,Substantial,Airplane,1,Reciprocating,,2,,,,VMC,LANDING,N528HB,Business
126,20161025X10743,10/20/2016,"Lovelock, NV",United States,40.056111,-118.577778,,Non-Fatal,Substantial,Airplane,1,Reciprocating,,,1,,,VMC,CLIMB,N4YB,Business
127,20161013X35806,10/13/2016,"Pawtucket, RI",United States,41.929167,-71.485277,SFZ,Non-Fatal,Substantial,Airplane,2,Turbo Fan,,6,,,,IMC,LANDING,N518AR,Business
128,20161013X93614,10/06/2016,"Hanna, WY",United States,42.116667,-106.716667,,Non-Fatal,Substantial,Airplane,1,Reciprocating,,2,,,,VMC,LANDING,N4457Z,Business
129,20161006X24138,10/04/2016,"Galesburg, IL",United States,40.938333,-90.431389,GBG,Non-Fatal,Substantial,Airplane,1,Reciprocating,,1,,,,VMC,LANDING,N400KX,Business
130,20160928X15757,09/25/2016,"Kotzebue, AK",United States,67.144722,-162.275278,,Non-Fatal,Substantial,Airplane,1,Reciprocating,,1,,,,IMC,LANDING,N2880P,Business
131,20160926X03410,09/22/2016,"San Juan, PR",United States,18.457500,-66.096111,TJIG,Non-Fatal,Substantial,Airplane,2,Turbo Jet,,3,,,,IMC,LANDING,YV1738,Business
132,20160922X61244,09/21/2016,"Jackson, TN",United States,35.600000,-88.915556,MKL,Non-Fatal,Substantial,Airplane,2,Turbo Prop,,1,,,,VMC,LANDING,N66804,Business
133,20160927X61547,09/06/2016,"Wilson, AR",United States,35.546111,-90.128056,,Non-Fatal,Substantial,Airplane,1,Turbo Prop,,1,,,,VMC,OTHER,N519EP,Business
134,20160830X24345,08/30/2016,"Sparks, NV",United States,39.521111,-119.765556,RNO,Fatal(2),Destroyed,Airplane,1,Reciprocating,,,,,2,VMC,APPROACH,N985CA,Business
135,20160829X35843,08/27/2016,"New Orleans, LA",United States,30.061667,-90.027500,KNEW,Fatal(2),Substantial,Airplane,1,Reciprocating,,,1,,2,VMC,APPROACH,N984RA,Business
136,20160824X81825,08/24/2016,"Telluride, CO",United States,37.893333,-107.833334,TEX,Fatal(2),Substantial,Glider,1,Reciprocating,,,,,2,VMC,CRUISE,N5021,Business
137,20160823X52304,08/23/2016,"Cokeville, WY",United States,42.066945,-110.946944,,Non-Fatal,Substantial,Helicopter,,,,,1,,,VMC,MANEUVERING,N97TH,Business
138,20160822X43925,08/18/2016,"Broussard, LA",United States,30.076667,-91.948889,3LA7,Non-Fatal,Substantial,Helicopter,1,Turbo Shaft,,2,,,,VMC,LANDING,N7898X,Business
139,20160829X54344,08/17/2016,"Sleetmute, AK",United States,61.705278,-157.150278,NONE,Non-Fatal,Substantial,Airplane,1,Reciprocating,,1,,,,VMC,LANDING,N8076Z,Business
140,20160721X33517,08/04/2016,"Homer, AK",United States,59.585277,-151.329445,HOM,Non-Fatal,Substantial,Helicopter,1,Reciprocating,,3,,,,VMC,,N719TF,Business
141,20160808X21820,07/31/2016,"Sleetmute, AK",United States,61.661667,-157.145277,SLQ,Non-Fatal,Substantial,Airplane,1,Reciprocating,,5,,,,VMC,TAKEOFF,N206JC,Business
142,20160730X25341,07/30/2016,"Lockhart, TX",United States,29.800000,-97.600000,,Fatal(16),Destroyed,Balloon,,,,,,,16,IMC,APPROACH,N2469L,Business
143,20160730X21955,07/30/2016,"Oshkosh, WI",United States,43.991389,-88.559722,OSH,Non-Fatal,Substantial,Helicopter,1,Reciprocating,,3,,,,VMC,APPROACH,N975BH,Business
144,20160724X14531,07/24/2016,"Oshkosh, WI",United States,43.961111,-88.556944,OSH,Non-Fatal,Substantial,Airplane,1,Reciprocating,,,,1,,VMC,APPROACH,N167BL,Business
145,20160720X55139,07/19/2016,"Illiamna, AK",United States,59.945833,-156.359444,,Non-Fatal,Substantial,Airplane,1,Reciprocating,,4,,,,VMC,LANDING,N85CF,Business
146,20160711X32921,07/11/2016,"Hickory, KY",United States,36.882778,-88.678889,NONE,Fatal(1),Substantial,Helicopter,1,Turbo Shaft,,,,,1,VMC,APPROACH,N427TV,Business
147,20160620X30745,06/16/2016,"Rionegro, Colombia",Colombia,6.171667,-75.424445,SKRG,Incident,Minor,Airplane,2,Turbo Fan,,5,,,,VMC,LANDING,N963CH,Business
148,20160623X84139,06/10/2016,"Deming, NM",United States,32.262500,-107.718889,DMN,Non-Fatal,Substantial,Airplane,1,Reciprocating,,,,2,,VMC,TAKEOFF,N21767,Business
149,20160609X45739,06/07/2016,"Cahokia/St. Louis, IL",United States,38.570278,-90.155000,CPS,Non-Fatal,Substantial,Helicopter,1,Reciprocating,,2,,,,VMC,MANEUVERING,N931SH,Business
150,20160518X05644,05/17/2016,"Mesa, AZ",United States,33.460833,-111.728334,FFZ,Fatal(2),Destroyed,Airplane,1,Reciprocating,,,,,2,VMC,MANEUVERING,N3198G,Business
151,20160516X15413,05/13/2016,"Edmond, OK",United States,35.666667,-97.615000,,Non-Fatal,Substantial,Balloon,,,,,5,1,,VMC,LANDING,N6952D,Business
152,20160501X83655,04/30/2016,"Tyrone, GA",United States,33.475556,-84.559444,,Non-Fatal,Substantial,Airplane,1,Reciprocating,,2,,,,VMC,,N7620B,Business
153,20160518X82339,04/30/2016,"Killeen, TX",United States,31.085833,-97.686389,ILE,Non-Fatal,Substantial,Airplane,2,Reciprocating,,1,,,,VMC,LANDING,N192CS,Business
154,20160218X05331,02/18/2016,"Marshville, NC",United States,35.008611,-80.368611,,Fatal(1),Substantial,Airplane,1,Reciprocating,,,,,1,VMC,CRUISE,N61WB,Business
155,20160214X54444,02/13/2016,"Petaluma, CA",United States,38.290833,-122.624167,,Non-Fatal,Minor,Balloon,,,,3,,1,,VMC,LANDING,N3647A,Business
156,20160127X52321,01/27/2016,"Bakersfield, CA",United States,35.433611,-119.054444,BFL,Non-Fatal,Substantial,Airplane,2,Reciprocating,,1,,,,VMC,LANDING,N346MC,Business
157,20160216X40423,01/26/2016,"Lawrenceville, GA",United States,33.978334,-83.961667,LZU,Non-Fatal,Substantial,Airplane,1,Turbo Prop,,1,,,,VMC,TAKEOFF,N338PC,Business
158,20160125X83431,01/19/2016,"Wichita, KS",United States,37.757778,-97.219445,AAO,Non-Fatal,Substantial,Airplane,1,Turbo Prop,,2,,,,VMC,APPROACH,N602MA,Business
159,20151229X61543,12/28/2015,"Stevensville, MD",United States,38.976389,-76.330000,W29,Non-Fatal,Substantial,Airplane,1,Reciprocating,,2,,,,VMC,LANDING,N9083U,Business
160,20160112X62304,12/23/2015,"Tahlequah, OK",United States,35.930278,-95.004444,TQH,Non-Fatal,Substantial,Airplane,1,Reciprocating,,1,,,,VMC,CLIMB,N4523A,Business
161,20151118X20221,11/17/2015,"San Carlos, Nicaragua",Nicaragua,11.128334,-84.670556,,Fatal(3),Destroyed,Helicopter,1,,,,,,3,,UNKNOWN,,Business
162,20151116X65940,11/14/2015,"Carlsbad, CA",United States,33.128334,-117.280000,CRQ,Non-Fatal,Substantial,Airplane,1,Reciprocating,,3,,,,VMC,LANDING,N9872,Business
163,20160119X45136,11/11/2015,"Grand Forks, ND",United States,47.947222,-97.173889,KGFK,Non-Fatal,Substantial,Airplane,2,Turbo Prop,,10,,,,IMC,STANDING,N617ST,Business
164,20151119X83701,11/06/2015,"Atlanta, GA",United States,33.879723,-84.298611,PDK,Non-Fatal,Substantial,Airplane,1,Turbo Prop,,2,,,,VMC,LANDING,N731LT,Business
165,20151027X24130,10/26/2015,"Pascagoula, MS",United States,30.305833,-88.530556,,Fatal(3),Destroyed,Airplane,1,Reciprocating,,,,,3,IMC,CRUISE,N817PR,Business
166,20151026X43000,10/26/2015,"Weston, FL",United States,26.058889,-80.434722,,Fatal(1),Substantial,Airplane,2,Reciprocating,,1,1,,1,VMC,APPROACH,N55GK,Business
167,20151020X24048,10/15/2015,"Ray, MI",United States,42.736666,-82.888889,57D,Non-Fatal,Substantial,Airplane,1,Turbo Prop,,,1,,,VMC,APPROACH,N224MS,Business
168,20151015X00706,10/14/2015,"Hammond, LA",United States,30.521667,-90.418334,HDC,Fatal(2),Destroyed,Airplane,2,Reciprocating,,,,,2,VMC,TAKEOFF,N33FA,Business
169,20151005X93607,10/05/2015,"Cedar City, UT",United States,37.648333,-113.198611,CDC,Fatal(2),Destroyed,Airplane,1,Reciprocating,,,,,2,VMC,MANEUVERING,N6449M,Business
170,20151006X02643,10/05/2015,"Devine, TX",United States,29.107778,-98.946666,,Non-Fatal,Substantial,Helicopter,1,Reciprocating,,1,,,,VMC,TAKEOFF,N174CD,Business
171,20151001X55616,09/27/2015,"Bentonville, AR",United States,36.346389,-94.219445,VBT,Non-Fatal,Substantial,Airplane,1,Reciprocating,,1,,,,VMC,GO-AROUND,N119BD,Business
172,20150923X21445,09/21/2015,"Platteville, WI",United States,42.689444,-90.444444,PVB,Non-Fatal,Substantial,Airplane,2,Reciprocating,,,2,,,VMC,TAKEOFF,N813CA,Business
173,20150922X71447,09/10/2015,"Myakka City, FL",United States,27.277778,-82.216389,,Non-Fatal,Substantial,Airplane,1,Reciprocating,,2,,,,VMC,LANDING,N892PS,Business
174,20151217X50308,09/03/2015,"Arctic Village, AK",United States,68.000000,-144.520000,,Non-Fatal,Substantial,Airplane,1,Reciprocating,,1,,,,VMC,TAKEOFF,N55WE,Business
175,20150831X30510,08/28/2015,"Las Vegas, NV",United States,36.099444,-115.162500,LAS,Non-Fatal,Minor,Airplane,2,Turbo Jet,,5,,,,VMC,STANDING,N187AA,Business
176,20150831X30510,08/28/2015,"Las Vegas, NV",United States,36.099444,-115.162500,LAS,Non-Fatal,Substantial,Airplane,2,Turbo Prop,,5,,,,VMC,STANDING,N959MC,Business
177,20150828X82523,08/28/2015,"Cheyenne, WY",United States,41.097222,-104.827223,KCYS,Non-Fatal,Substantial,Helicopter,1,Reciprocating,,,3,3,,VMC,LANDING,N440SA,Business
178,20150827X03425,08/27/2015,"Houlton, ME",United States,46.100833,-67.804444,HUL,Fatal(1),Destroyed,Airplane,2,Reciprocating,,,,,1,IMC,APPROACH,N553MD,Business
179,20150823X74316,08/22/2015,"Carlos, TX",United States,30.601111,-96.075834,,Non-Fatal,Substantial,Helicopter,1,Reciprocating,,,,2,,VMC,MANEUVERING,N445HS,Business
180,20150807X41741,08/06/2015,"Montecito, CA",United States,34.644444,-119.538889,,Fatal(2),Substantial,Airplane,1,Reciprocating,,,,,2,VMC,,N5738F,Business
181,20150801X43013,07/23/2015,"Baltimore, MD",United States,39.174167,-76.671389,BWI,Non-Fatal,Substantial,Airplane,2,Turbo Fan,,7,,,,VMC,LANDING,N765A,Business
182,20150728X80758,07/22/2015,"San Antonio, TX",United States,29.336944,-98.471111,SSF,Non-Fatal,Substantial,Airplane,1,Reciprocating,,,1,1,,VMC,STANDING,N5542M,Business
183,20150723X33213,07/22/2015,"Kasilof, AK",United States,60.283611,-152.458056,,Non-Fatal,Substantial,Airplane,,Reciprocating,,1,,,,VMC,TAKEOFF,N206CL,Business
184,20150722X93738,07/18/2015,"Fairfield, NC",United States,35.560556,-76.234444,23NR,Non-Fatal,Substantial,Airplane,1,Reciprocating,,2,,,,VMC,TAKEOFF,N5453V,Business
185,20150707X10125,07/07/2015,"Houston, TX",United States,29.972500,-95.451111,IAH,Non-Fatal,Substantial,Airplane,1,Reciprocating,,,2,,,VMC,TAKEOFF,N422PB,Business
186,20150708X21807,07/02/2015,"Fort Carson, CO",United States,38.697222,-104.726111,,Non-Fatal,,Balloon,,,,,6,2,,VMC,LANDING,N210GB,Business
187,20150729X83203,06/16/2015,"Kerry, Ireland, Ireland",Ireland,52.180556,-9.523611,EIKY,Incident,,Airplane,2,Turbo Fan,,5,,,,,TAKEOFF,N1310H,Business
188,20150527X90354,05/26/2015,"Port Alsworth, AK",United States,60.000000,-154.000000,,Non-Fatal,Substantial,Airplane,1,Reciprocating,,2,1,,,VMC,CRUISE,N888KD,Business
189,20150518X10336,05/15/2015,"Piggott, AR",United States,36.374723,-90.166111,7M7,Non-Fatal,Substantial,Airplane,1,Reciprocating,,,1,,,VMC,STANDING,N164CS,Business
190,20150514X61132,05/14/2015,"Juntura, OR",United States,43.759722,-118.088333,,Fatal(1),Substantial,Airplane,1,Reciprocating,,,,,1,VMC,MANEUVERING,N5042P,Business
191,20150513X90237,05/04/2015,"Roxboro, NC",United States,36.288055,-78.982778,TDF,Non-Fatal,Substantial,Airplane,1,Reciprocating,,2,,,,VMC,TAXI,N1102C,Business
192,20150331X62747,03/31/2015,"Walhalla, SC",United States,34.732500,-83.078611,PVT,Non-Fatal,Substantial,Airplane,1,Reciprocating,,,,2,,VMC,GO-AROUND,N376CG,Business
193,20150313X90544,03/04/2015,"Monroe, NC",United States,35.025278,-80.611944,EQY,Non-Fatal,Substantial,Airplane,2,Reciprocating,,4,,,,IMC,LANDING,N50NH,Business
194,20150220X72637,02/20/2015,"Lubbock, TX",United States,33.485555,-101.812778,F82,Non-Fatal,Substantial,Airplane,1,Reciprocating,,2,,,,VMC,TAKEOFF,N22267,Business
195,20150403X41941,02/12/2015,"Akron, OH",United States,41.037500,-81.466667,AKR,Non-Fatal,Substantial,Airplane,,Reciprocating,,2,,,,VMC,LANDING,N427AB,Business
196,20150128X01747,01/25/2015,"Hanford, CA",United States,36.190000,-119.373889,HJO,Non-Fatal,Substantial,Airplane,1,Reciprocating,,2,,,,VMC,LANDING,N559KC,Business
197,20150128X35114,01/06/2015,"Grand Junction, CO",United States,39.080556,-108.559167,,Non-Fatal,Substantial,Gyroplane,1,Reciprocating,,,1,1,,VMC,CLIMB,N50NE,Business
198,20141227X53516,12/24/2014,"Port Huron, MI",United States,42.922500,82.526667,PHN,Fatal(1),Destroyed,Airplane,2,Reciprocating,,,,,1,IMC,GO-AROUND,N38884,Business
199,20141215X02302,12/12/2014,"Springfield, MO",United States,37.218056,-93.265833,3DW,Non-Fatal,Substantial,Airplane,1,Reciprocating,,,2,2,,VMC,MANEUVERING,N3127R,Business
200,20141209X00958,12/09/2014,"Jeffrey, WY",United States,42.532223,-107.934722,NA,Non-Fatal,Substantial,Airplane,1,Reciprocating,,1,2,,,VMC,LANDING,N4881K,Business
201,20141203X92851,12/02/2014,"Wachula, FL",United States,27.515000,-81.880556,CHN,Non-Fatal,Substantial,Airplane,1,Reciprocating,,1,,,,VMC,LANDING,N933TK,Business
202,20141118X30503,11/17/2014,"Fulton, MO",United States,38.837500,-92.008889,FTT,Non-Fatal,Substantial,Airplane,2,Reciprocating,,,,3,,VMC,TAKEOFF,N401ME,Business
203,20141024X40111,10/24/2014,"Harper, TX",United States,30.306667,-99.247500,,Non-Fatal,Substantial,Helicopter,1,Reciprocating,,2,,,,VMC,MANEUVERING,N7192K,Business
204,20141016X45532,10/15/2014,"Denver, CO",United States,39.851667,-104.642222,DEN,Incident,Minor,Airplane,2,Turbo Fan,,3,,,,VMC,TAKEOFF,N694ES,Business
205,20141014X20105,10/08/2014,"Cordova, AK",United States,60.107500,-143.203611,,Non-Fatal,Substantial,Airplane,1,Reciprocating,,2,,,,VMC,LANDING,N82448,Business
206,20140903X63615,09/03/2014,"Ooltewah, TN",United States,35.077778,-85.055278,FGU,Fatal(1),Substantial,Airplane,1,Reciprocating,,,,,1,VMC,,N541EM,Business
207,20140902X80413,09/02/2014,"Willows, CA",United States,39.524167,-122.249166,WLW,Non-Fatal,Substantial,Helicopter,1,Turbo Shaft,,,,1,,VMC,CRUISE,N516PJ,Business
208,20140820X02638,08/19/2014,"Milton, FL",United States,30.635833,-86.989444,2R4,Non-Fatal,Substantial,Airplane,1,Reciprocating,,3,2,,,VMC,STANDING,N636TM,Business
209,20140818X45532,08/18/2014,"Freeport, Bahamas",Bahamas,26.595000,-78.790555,MYGF,Fatal(4),Destroyed,Airplane,2,Reciprocating,,,,,4,VMC,,N340MM,Business
210,20140815X30452,08/14/2014,"Wiggins, MS",United States,30.878611,-89.114722,,Non-Fatal,Substantial,Airplane,1,Reciprocating,,,3,,,VMC,DESCENT,N1229M,Business
211,20140807X92933,08/06/2014,"Saint Jean les Deux Jumeaux, France",France,48.951389,3.018056,,Fatal(2),Destroyed,Airplane,1,Turbo Prop,,,,3,2,,,N129AG,Business
212,20140803X82134,08/01/2014,"Statesville, NC",United States,35.765000,80.953889,SVH,Non-Fatal,Substantial,Airplane,1,Reciprocating,,2,2,,,IMC,LANDING,N472ST,Business
213,20140804X22623,08/01/2014,"Illiamna, AK",United States,59.206389,-154.970556,,Non-Fatal,Substantial,Airplane,1,Reciprocating,,7,,,,VMC,LANDING,N87808,Business
214,20140804X93443,07/30/2014,"Talkeetna, AK",United States,62.841389,-149.105833,N/S,Non-Fatal,Substantial,Airplane,1,Reciprocating,,2,,,,VMC,TAKEOFF,N62197,Business
215,20140718X34015,07/16/2014,"Bakersfield, CA",United States,,,KBFL,Incident,Minor,Airplane,,,,1,,,,,,N6756P,Business
216,20140715X15139,07/14/2014,"Durango, CO",United States,37.151389,-107.753889,DRO,Non-Fatal,Substantial,Airplane,1,Reciprocating,,1,,,,VMC,LANDING,N562BG,Business
217,20140703X85332,07/02/2014,"Olathe, KS",United States,38.853889,-94.735277,OJC,Non-Fatal,Substantial,Helicopter,1,Reciprocating,,2,,,,VMC,,N225TV,Business
218,20140626X51345,06/25/2014,"Iliamna, AK",United States,59.896111,-156.506111,,Non-Fatal,Minor,Airplane,1,Reciprocating,,1,,1,,VMC,MANEUVERING,N115CX,Business
219,20140617X55442,06/16/2014,"Pleasanton, TX",United States,28.000000,98.000000,PEZ,Non-Fatal,Substantial,Airplane,2,Reciprocating,,1,5,,,VMC,GO-AROUND,N1671T,Business
220,20140615X80021,06/15/2014,"Spring City, PA",United States,40.163889,-75.539444,,Fatal(1),,Balloon,,,,10,,,1,VMC,LANDING,N65625,Business
221,20140531X34757,05/31/2014,"Willow, AK",United States,61.746944,-150.059444,2X2,Non-Fatal,Substantial,Airplane,1,Reciprocating,,3,,,,VMC,LANDING,N602BC,Business
222,20140623X35701,05/24/2014,"Dallas, TX",United States,32.737777,-96.969167,KRBD,Non-Fatal,Substantial,Airplane,2,Reciprocating,,4,,,,VMC,TAXI,N936U,Business
223,20140610X80333,05/05/2014,"Rock Springs, WY",United States,41.594166,-109.065278,RKS,Non-Fatal,Substantial,Airplane,1,Turbo Prop,,2,,,,VMC,DESCENT,N323JC,Business
224,20140515X63420,04/30/2014,"Para, Brazil",Brazil,-7.710556,-56.424445,,Fatal(2),Destroyed,Airplane,1,Reciprocating,,,,,2,VMC,,,Business
225,20140414X43958,04/11/2014,"West Chicago, IL",United States,41.908889,-88.249166,DPA,Non-Fatal,Substantial,Airplane,1,Reciprocating,,2,,,,VMC,LANDING,N1972M,Business
226,20140204X20036,02/03/2014,"Elk City, OK",United States,35.465278,-99.394722,ELK,Non-Fatal,Substantial,Airplane,2,Turbo Fan,,7,,,,IMC,APPROACH,N61YP,Business
227,20140203X35035,01/31/2014,"Springfield, IL",United States,39.844166,-89.678056,SPI,Non-Fatal,Substantial,Airplane,2,Turbo Prop,,5,,,,IMC,LANDING,N700FE,Business
228,20140124X91020,01/23/2014,"Ashland, MO",United States,38.774167,-92.279723,COU,Non-Fatal,Substantial,Airplane,2,Reciprocating,,3,,,,VMC,DESCENT,N414CJ,Business
229,20140121X71107,01/21/2014,"Pell City, AL",United States,33.565278,-86.303333,None,Non-Fatal,Substantial,Helicopter,1,Reciprocating,,,2,,,VMC,APPROACH,N93067,Business
230,20140106X31044,01/05/2014,"West Delta 109, GM",United States,29.160000,89.210000,None,Non-Fatal,Substantial,Helicopter,2,Turbo Shaft,,2,,,,VMC,MANEUVERING,N430CT,Business
231,20131218X10522,12/18/2013,"Panama City, FL",United States,30.101944,-85.462222,75FL,Fatal(1),Substantial,Airplane,1,Reciprocating,,,,,1,VMC,,N89SN,Business
232,20131213X41847,12/12/2013,"Collbran, CO",United States,39.228889,-107.676945,,Fatal(3),Substantial,Airplane,1,Reciprocating,,,,,3,VMC,MANEUVERING,N8037P,Business
233,20131210X03136,12/06/2013,"Monticello, UT",United States,37.926111,-109.338055,,Non-Fatal,Substantial,Helicopter,,Turbo Shaft,,1,,,,VMC,TAKEOFF,N2066W,Business
234,20131122X45906,11/20/2013,"Rio de Janeiro, Brazil",Brazil,22.988889,-44.250000,SIWS,Fatal(1),Substantial,Helicopter,1,Reciprocating,,,,,1,,,,Business
235,20131102X13104,11/02/2013,"Superior, MT",United States,47.316667,-115.483334,,Non-Fatal,Substantial,Helicopter,1,Turbo Shaft,,1,,,,VMC,MANEUVERING,N888DR,Business
236,20131102X05355,11/01/2013,"Upland, CA",United States,34.112222,-117.686944,CCB,Non-Fatal,Substantial,Airplane,1,Electric,,2,,,,VMC,LANDING,N400XW,Business
237,20131019X24348,10/18/2013,"Clayton, OK",United States,34.583056,-95.500278,,Fatal(1),Substantial,Airplane,1,Reciprocating,,,,,1,VMC,CRUISE,N30495,Business
238,20131018X34254,10/18/2013,"Derby, KS",United States,37.522500,-97.217500,,Fatal(2),Destroyed,Airplane,2,Turbo Fan,,,,,2,VMC,CLIMB,N610ED,Business
239,20131018X12721,10/17/2013,"Sedro Woolley, WA",United States,48.590000,-122.256389,,Non-Fatal,Substantial,Helicopter,1,Reciprocating,,2,,,,IMC,TAKEOFF,N414CC,Business
240,20131023X52555,10/08/2013,"Tallahassee, FL",United States,30.396666,-84.351389,TLH,Incident,Minor,Airplane,1,Turbo Prop,,1,,,,VMC,LANDING,N640BD,Business
241,20130930X23918,09/24/2013,"Lyon, France",France,,,,Fatal(4),Destroyed,Airplane,,,,,,,4,,TAKEOFF,N556MB,Business
242,20130926X15937,09/23/2013,"Mack, CO",United States,39.268056,-108.864167,10CO,Non-Fatal,Substantial,Airplane,1,Reciprocating,,2,1,,,VMC,,N426TF,Business
243,20130919X04513,09/19/2013,"Idaho Falls, ID",United States,43.513611,112.070556,IDA,Non-Fatal,Substantial,Airplane,2,Turbo Prop,,,2,1,,VMC,APPROACH,N191TP,Business
244,20130918X95121,09/16/2013,"Redmond, OR",United States,44.256667,-121.150000,RDM,Non-Fatal,Substantial,Airplane,1,Reciprocating,,1,,,,VMC,LANDING,N5112E,Business
245,20130827X51843,08/27/2013,"Paris, IL",United States,39.701389,-87.650556,PRG,Fatal(1),Destroyed,Airplane,2,Turbo Prop,,,,,1,VMC,TAKEOFF,N229H,Business
246,20130824X50810,08/15/2013,"Sleetmute, AK",United States,61.700278,-159.165833,,Non-Fatal,Substantial,Airplane,1,Reciprocating,,4,,,,VMC,LANDING,N185SN,Business
247,20130812X51051,08/12/2013,"West Yellowstone, MT",United States,44.702778,-111.108056,WYS,Fatal(1),Substantial,Airplane,1,Reciprocating,,,,1,1,VMC,APPROACH,N3226C,Business
248,20130711X40532,07/04/2013,"Las Vegas, NV",United States,36.076111,-115.170000,KLAS,Incident,,Airplane,,,,,,,,VMC,GO-AROUND,,Business
249,20130624X31512,06/24/2013,"Royal City, WA",United States,46.966945,-119.776111,,Non-Fatal,Substantial,Helicopter,1,Turbo Shaft,,,,1,,IMC,MANEUVERING,N407FK,Business
250,20130617X33740,06/15/2013,"Victoria, TX",United States,28.844444,-96.904722,KVCT,Non-Fatal,Substantial,Airplane,2,Reciprocating,,,1,5,,VMC,TAKEOFF,N74CP,Business
251,20130619X12430,06/14/2013,"Tefe, Brazil",Brazil,-4.501111,-65.517778,SBTF,Fatal(2),Destroyed,Helicopter,1,Turbo Shaft,,,,,2,VMC,,,Business
252,20130613X84701,06/08/2013,"Louisville, CO",United States,39.971111,-105.174445,,Incident,Minor,Balloon,0,,,5,1,,,VMC,LANDING,N30018,Business
253,20130613X82747,06/08/2013,"Boulder, CO",United States,39.925000,-105.225556,,Incident,Minor,Airplane,1,Unknown,,10,2,,,VMC,LANDING,N201FW,Business
254,20130529X10741,05/23/2013,"Beaumont, TX",United States,30.070278,-94.215000,BMT,Non-Fatal,Substantial,Airplane,1,Reciprocating,,,1,,,VMC,CLIMB,N121CM,Business
255,20130515X44256,05/15/2013,"Pine Bluffs, WY",United States,41.150278,-104.168889,82V,Non-Fatal,Substantial,Airplane,1,Reciprocating,,1,,,,VMC,TAKEOFF,N2167J,Business
256,20130517X43218,05/08/2013,"Winnie, TX",United States,29.818889,-94.431111,T90,Non-Fatal,Substantial,Airplane,,Reciprocating,,1,,,,VMC,,N3650B,Business
257,20130429X81038,04/26/2013,"Hoxie, KS",United States,39.363889,-100.456389,,Non-Fatal,Substantial,Airplane,1,Reciprocating,,3,,,,VMC,,N222GL,Business
258,20130510X41006,04/24/2013,"Clearwater, FL",United States,27.905000,-82.687222,KPIE,Incident,Minor,Airplane,2,Turbo Prop,,6,,,,VMC,LANDING,N139SL,Business
259,20130326X10640,03/24/2013,"Stevens Village, AK",United States,66.174167,-149.120278,,Non-Fatal,Substantial,Helicopter,1,Turbo Shaft,,1,,,,VMC,LANDING,N353DL,Business
260,20130317X22700,03/17/2013,"Stafford, VA",United States,38.370000,-77.430000,RMN,Non-Fatal,Substantial,Airplane,1,Reciprocating,,,,2,,VMC,APPROACH,N32EV,Business
261,20130317X85055,03/17/2013,"South Bend, IN",United States,41.695833,-86.296111,SBN,Fatal(2),Destroyed,Airplane,2,Turbo Fan,,,,3,2,VMC,DESCENT,N26DK,Business
262,20130320X65919,03/15/2013,"Winsted, MN",United States,44.950000,-94.066945,10D,Non-Fatal,Substantial,Airplane,2,Reciprocating,,6,,,,VMC,APPROACH,N6222M,Business
263,20130318X44236,03/10/2013,"Rogers, AR",United States,36.372223,-94.106944,KROG,Non-Fatal,Substantial,Airplane,1,Reciprocating,,4,,,,IMC,LANDING,N71DH,Business
264,20130220X23353,02/20/2013,"Parkers Parairie, MN",United States,46.238333,-95.251667,,Fatal(1),Substantial,Airplane,1,Reciprocating,,,,,1,VMC,,N9229Y,Business
265,20130227X35753,02/18/2013,"Valparaiso, FL",United States,30.483056,-86.526111,VPS,Non-Fatal,Substantial,Airplane,1,Reciprocating,,4,,,,VMC,LANDING,N98598,Business
266,20130214X61121,02/14/2013,"Abilene, TX",United States,32.508611,-99.607222,,Non-Fatal,Substantial,Airplane,2,Reciprocating,,1,,,,VMC,,N7466D,Business
267,20130326X01857,02/13/2013,"Sabinal, TX",United States,29.208611,-99.525834,,Non-Fatal,Substantial,Airplane,1,Reciprocating,NSCH,1,,,,VMC,APPROACH,N7824G,Business
268,20130211X13953,02/06/2013,"Tulsa, OK",United States,36.198333,-95.888055,KTUL,Non-Fatal,Substantial,Helicopter,1,Reciprocating,,1,,,,VMC,STANDING,N276RC,Business
269,20130206X33419,02/05/2013,"Kalskag, AK",United States,61.536389,-160.341389,PALG,Non-Fatal,Substantial,Airplane,1,Reciprocating,,,2,1,,IMC,,N5290J,Business
270,20130204X05610,02/01/2013,"College Station, TX",United States,30.556389,-96.572778,CLL,Non-Fatal,Substantial,Airplane,1,Reciprocating,,2,1,,,VMC,CRUISE,N247RB,Business
271,20130111X25405,01/11/2013,"Maxwell, NE",United States,41.201667,-100.470278,LBF,Fatal(4),Destroyed,Airplane,2,Reciprocating,,,,,4,IMC,CLIMB,N36VE,Business
272,20130111X41734,01/10/2013,"Kammenniemi, Finland",Finland,,,,Non-Fatal,Substantial,Helicopter,,,,,1,,,,,,Business
273,20121219X15826,12/19/2012,"Libby, MT",United States,48.320556,-115.475556,S59,Fatal(2),Destroyed,Airplane,2,Turbo Prop,,,,,2,VMC,MANEUVERING,N499SW,Business
274,20121211X41020,12/10/2012,"Lake Park, GA",United States,30.713611,-83.182223,VLD,Fatal(1),Substantial,Airplane,1,Reciprocating,,,,,1,VMC,CLIMB,N840DS,Business
275,20121207X91829,12/07/2012,"Roosevelt Lake, AZ",United States,33.736666,-111.201667,KSDL,Non-Fatal,Substantial,Helicopter,1,Reciprocating,,,2,1,,VMC,,N557AC,Business
276,20121127X24828,11/26/2012,"Wells, TX",United States,31.470556,-94.940555,,Fatal(1),Substantial,Airplane,2,Reciprocating,,,,,1,IMC,,N67SR,Business
277,20121117X02558,11/17/2012,"White Plains, NY",United States,41.050000,-73.689444,HPN,Non-Fatal,Substantial,Airplane,1,Reciprocating,,,1,,,VMC,APPROACH,N8519M,Business
278,20121109X12955,11/09/2012,"La Grange, TX",United States,29.928334,-96.946389,3T5,Non-Fatal,Substantial,Airplane,1,Reciprocating,,,3,,,VMC,DESCENT,N732BL,Business
279,20121027X02310,10/27/2012,"Lake Havasu, AZ",United States,34.423889,-114.297500,,Non-Fatal,Substantial,Helicopter,1,Reciprocating,,,2,,,VMC,MANEUVERING,N2627M,Business
280,20121019X34838,10/17/2012,"Wausau, WI",United States,44.926389,-89.626945,AUW,Non-Fatal,Substantial,Airplane,1,Reciprocating,,,,1,,IMC,APPROACH,N121VP,Business
281,20121016X75112,10/15/2012,"Willow, AK",United States,61.833611,-150.560556,,Fatal(1),Destroyed,Airplane,2,Reciprocating,,,,,1,VMC,CRUISE,N27PH,Business
282,20121015X92424,10/13/2012,"Charlotte Amalie, VI",United States,18.240833,-65.055278,TIST,Fatal(3),Substantial,Airplane,2,Reciprocating,,,,1,3,VMC,DESCENT,N5553Y,Business
283,20121005X12006,10/03/2012,"Rockport, WA",United States,48.918611,-121.352778,BVS,Non-Fatal,Substantial,Helicopter,1,Reciprocating,,2,,,,VMC,MANEUVERING,N80140,Business
284,20121003X24635,10/03/2012,"Gary, IN",United States,41.616111,-87.412778,KGYY,Fatal(2),Substantial,Airplane,1,Reciprocating,,,,,2,IMC,APPROACH,N308PJ,Business
285,20121007X75550,10/02/2012,"Eden Prairie, MN",United States,44.823056,-93.455278,KFCM,Non-Fatal,Substantial,Airplane,1,Reciprocating,,1,,,,VMC,LANDING,N750SR,Business
286,20121001X80238,09/30/2012,"Port Lions, AK",United States,57.653611,-152.937222,PVT,Non-Fatal,Substantial,Airplane,1,Reciprocating,,2,,,,VMC,TAKEOFF,N2028G,Business
287,20120915X43730,09/15/2012,"West Windsor, NJ",United States,40.300000,-74.668611,,Fatal(1),Substantial,Helicopter,2,Turbo Shaft,,,,,1,VMC,,N58020,Business
288,20120910X71500,09/08/2012,"Viola, ID",United States,46.829445,-116.998055,,Fatal(1),Substantial,Airplane,1,Reciprocating,,,,,1,VMC,MANEUVERING,N550YS,Business
289,20120905X22200,09/05/2012,"Fort Worth, TX",United States,32.558889,-97.304722,FWS,Non-Fatal,Substantial,Airplane,2,Reciprocating,,,,2,,VMC,TAKEOFF,N69924,Business
290,20120817X01208,08/16/2012,"Holton, KS",United States,39.453889,-95.788889,,Non-Fatal,Substantial,Airplane,1,Reciprocating,,,1,2,,VMC,,N8546P,Business
291,20120815X90528,08/15/2012,"Clifton Park, NY",United States,42.801667,-73.793055,ALB,Fatal(2),Substantial,Airplane,1,Reciprocating,,,,,2,VMC,CLIMB,N678DR,Business
292,20130123X22007,08/06/2012,"Liechtenstein, Switzerland",Switzerland,47.485000,9.560833,,Non-Fatal,Substantial,Airplane,2,Turbo Fan,,3,,,,VMC,,,Business
293,20120813X10424,08/04/2012,"Tlaxco, Mexico",Mexico,,,,Non-Fatal,Substantial,Helicopter,,,,3,1,,,,,,Business
294,20120804X25204,08/04/2012,"Imperial, NE",United States,,,,Fatal(1),Substantial,Airplane,1,Reciprocating,,,,,1,VMC,MANEUVERING,N36286,Business
295,20120802X92317,08/01/2012,"Holly Lake Ranch, TX",United States,32.697500,-95.207778,16TE,Non-Fatal,Substantial,Airplane,1,Reciprocating,,,,1,,VMC,DESCENT,N4684D,Business
296,20120723X43615,07/22/2012,"Pickens, SC",United States,34.810000,-82.702778,LQK,Non-Fatal,Substantial,Airplane,1,Reciprocating,,4,,,,VMC,CRUISE,N138CK,Business
297,20120720X90330,07/20/2012,"Circle, AK",United States,65.946111,-143.972778,,Non-Fatal,Substantial,Helicopter,1,Turbo Shaft,NSCH,4,,,,VMC,STANDING,N363AL,Business
298,20120718X75927,07/17/2012,"Delano, CA",United States,35.745555,-119.236389,DLO,Non-Fatal,Substantial,Airplane,1,Turbo Prop,,1,,,,VMC,LANDING,N558RW,Business
299,20120711X34221,07/09/2012,"Williston, ND",United States,48.039166,-102.339722,,Non-Fatal,Substantial,Airplane,1,Reciprocating,,1,,,,VMC,LANDING,N8709V,Business
300,20120718X75839,06/22/2012,"Metropolis, IL",United States,37.185833,-88.750556,KM30,Non-Fatal,Substantial,Airplane,1,Reciprocating,,1,,,,VMC,LANDING,N43840,Business
301,20120608X34406,06/06/2012,"Sellersburg, IN",United States,38.433333,-85.866667,,Non-Fatal,Minor,Balloon,0,,,1,1,1,,VMC,MANEUVERING,N401DJ,Business
302,20120518X70641,05/18/2012,"Boulder City, NV",United States,35.954167,-114.881945,BVU,Fatal(2),Substantial,Airplane,1,Turbo Fan,,,,,2,VMC,UNKNOWN,N39WT,Business
303,20120507X00611,05/05/2012,"Grand Case, France",France,,,,Fatal(4),Destroyed,Airplane,,Turbo Prop,NSCH,,,,4,,,,Business
304,20120502X70035,05/02/2012,"Phoenix, AZ",United States,33.500278,-112.041944,,Non-Fatal,Substantial,Helicopter,1,Reciprocating,,,1,1,,VMC,,N380TL,Business
305,20120428X53650,04/28/2012,"Port Canaveral, FL",United States,28.338055,-80.684444,,Non-Fatal,Substantial,Airplane,1,Reciprocating,,1,,,,VMC,MANEUVERING,N77LR,Business
306,20120420X71440,04/17/2012,"Gulf of Mexico, LA",United States,28.092500,-92.233611,,Non-Fatal,Substantial,Helicopter,2,Turbo Shaft,,7,,,,VMC,LANDING,N56RD,Business
307,20120510X73152,04/16/2012,"Clermont, FL",United States,28.550556,-81.769167,,Non-Fatal,,Balloon,1,,NSCH,2,,1,,VMC,LANDING,N990BR,Business
308,20120413X01034,04/10/2012,"Sedona, AZ",United States,34.848333,-111.788333,SEZ,Non-Fatal,,Balloon,0,,,14,,,,VMC,APPROACH,N20513,Business
309,20120413X01034,04/10/2012,"Sedona, AZ",United States,34.848333,-111.788333,SEZ,Non-Fatal,Substantial,Balloon,0,,,14,,,,VMC,APPROACH,N2037U,Business
310,20120411X30418,04/10/2012,"Iuka, MS",United States,34.737222,-88.212500,,Non-Fatal,Substantial,Airplane,1,Reciprocating,,,2,,,VMC,,N43003,Business
311,20120320X90348,03/12/2012,"Southern Timbalier 52CA, GM",United States,28.944444,-90.182778,52CA,Non-Fatal,Substantial,Helicopter,1,Turbo Shaft,,1,,,,VMC,TAKEOFF,N104LP,Business
312,20120316X94235,03/09/2012,"Naknek, AK",United States,58.778334,-156.942222,,Non-Fatal,Substantial,Airplane,1,Reciprocating,,2,,,,VMC,TAKEOFF,N756CL,Business
313,20120319X92038,03/08/2012,"Ontario, Canada",Canada,,,,Incident,,Airplane,,,,,,,,UNK,,,Business
314,20120319X92038,03/08/2012,"Ontario, Canada",Canada,,,,Incident,,Airplane,2,Unknown,,,,,,UNK,,,Business
315,20120309X70038,03/07/2012,"Atlanta, GA",United States,33.875834,-84.301944,PDK,Non-Fatal,Substantial,Airplane,2,Reciprocating,,1,,,,VMC,,N4083Y,Business
316,20120217X34147,03/01/2012,"Coolidge, AZ",United States,32.934722,-111.422500,P08,Non-Fatal,Substantial,Helicopter,1,Turbo Shaft,,,2,,,VMC,MANEUVERING,N197LE,Business
317,20120302X32033,03/01/2012,"Egelsbach, Germany",Germany,49.961111,-8.643611,,Fatal(5),Destroyed,Airplane,,,,,,,5,,,N288CX,Business
318,20120228X04141,02/27/2012,"Denver, CO",United States,39.785277,-104.543055,FTG,Non-Fatal,Substantial,Airplane,1,Reciprocating,,,1,,,VMC,TAXI,N3196F,Business
319,20120419X11425,02/17/2012,"Temecula, CA",United States,33.531667,-117.050000,F70,Non-Fatal,Substantial,Balloon,0,,,9,,,,VMC,APPROACH,N49CD,Business
320,20111216X20841,12/16/2011,"Cheyenne, WY",United States,41.155556,-104.810556,KCYS,Non-Fatal,Substantial,Airplane,1,Reciprocating,,1,,,,VMC,LANDING,N8281D,Business
321,20111215X31833,12/15/2011,"Phoenix, AZ",United States,33.608333,-111.930000,SDL,Fatal(1),Substantial,Airplane,1,Reciprocating,,,,1,1,VMC,APPROACH,N7850P,Business
322,20111214X15942,12/13/2011,"Friday Harbor, WA",United States,48.495000,-123.046666,,Non-Fatal,Substantial,Airplane,1,Reciprocating,,1,,,,VMC,,N1810P,Business
323,20111117X91407,11/17/2011,"Ulysses, PA",United States,41.939166,-77.691944,,Non-Fatal,Substantial,Airplane,2,Reciprocating,,,,4,,IMC,,N54552,Business
324,20111123X33825,11/10/2011,"College Station, TX",United States,30.660833,-96.499722,,Non-Fatal,Substantial,Airplane,2,Reciprocating,,,2,,,VMC,,N8188R,Business
325,20111103X34623,11/03/2011,"Key West, FL",United States,24.556111,-81.759444,EYW,Incident,Minor,Airplane,2,Turbo Fan,,5,,,,VMC,LANDING,N938D,Business
326,20111021X85131,10/21/2011,"Paso Robles, CA",United States,35.673334,-120.626667,PRB,Non-Fatal,Substantial,Airplane,1,Reciprocating,,,1,,,IMC,APPROACH,N422HP,Business
327,20111018X53130,10/15/2011,"Santa Rosa, Venezuela",Venezuela,8.200000,-62.718056,,Non-Fatal,Substantial,Helicopter,,,,,5,1,,VMC,,,Business
328,20111014X02944,10/11/2011,"Lafayette, IN",United States,40.412222,-86.936944,LAF,Non-Fatal,Substantial,Airplane,2,Turbo Fan,,4,,,,VMC,TAXI,N64MG,Business
329,20111012X70417,10/10/2011,"Diamond, WA",United States,46.918056,-117.653611,,Non-Fatal,Substantial,Airplane,1,Reciprocating,,,1,,,VMC,LANDING,N132LL,Business
330,20110908X35846,09/08/2011,"West Liberty, OH",United States,40.250000,83.770000,EDJ,Fatal(1),Substantial,Airplane,1,Reciprocating,,,,,1,IMC,,N159JW,Business
331,20110906X61710,09/06/2011,"Park City, UT",United States,40.669723,-111.404722,,Non-Fatal,Substantial,Balloon,0,,,,2,1,,VMC,LANDING,N7154E,Business
332,20110830X45215,08/29/2011,"Cape Yakataga, AK",United States,60.075000,-143.104722,NA,Non-Fatal,Substantial,Airplane,1,Reciprocating,,2,,,,VMC,TAKEOFF,N82448,Business
333,20110829X25527,08/27/2011,"Grand Marais, MN",United States,47.822778,-90.407222,,Non-Fatal,Substantial,Airplane,1,Reciprocating,,4,,,,VMC,TAKEOFF,N9011T,Business
334,20110823X72145,08/20/2011,"Lewiston, ME",United States,44.093889,-70.222223,,Non-Fatal,,Balloon,0,,,4,4,1,,VMC,STANDING,N75213,Business
335,20110822X25654,08/19/2011,"Igiugig, AK",United States,59.343333,-155.868611,,Non-Fatal,Substantial,Airplane,1,Reciprocating,,4,,,,VMC,LANDING,N26CZ,Business
336,20110815X40827,08/12/2011,"Coldfoot, AK",United States,67.588333,-148.755556,,Non-Fatal,Substantial,Airplane,1,Reciprocating,,,1,,,VMC,LANDING,N1258C,Business
337,20110813X60348,08/12/2011,"Kodiak, AK",United States,57.743055,-152.622778,PADQ,Non-Fatal,Substantial,Airplane,1,Reciprocating,,2,,,,VMC,APPROACH,N8152Z,Business
338,20110807X03612,08/06/2011,"Coalinga, CA",United States,36.248055,-120.238333,3O8,Non-Fatal,Substantial,Airplane,1,Reciprocating,,,4,,,VMC,TAKEOFF,N408FD,Business
339,20110728X91152,07/22/2011,"Clark, CO",United States,40.760278,-106.965000,,Non-Fatal,,Balloon,0,,,6,2,1,,VMC,LANDING,N2012J,Business
340,20110722X41551,07/20/2011,"Columbia, MO",United States,38.819167,-92.221667,COU,Non-Fatal,Substantial,Airplane,1,Reciprocating,,1,,,,VMC,LANDING,N2056S,Business
341,20110722X12056,07/19/2011,"Colville, WA",United States,48.540277,-117.888611,63S,Non-Fatal,Substantial,Airplane,2,Reciprocating,,3,,,,VMC,LANDING,N601FD,Business
342,20120514X45343,07/14/2011,"Port Harcout, Nigeria",Nigeria,5.015278,6.943055,,Incident,Minor,Airplane,,,,,,,,,LANDING,,Business
343,20110705X62537,07/05/2011,"Columbia, CA",United States,38.030278,-120.414444,O22,Non-Fatal,Substantial,Airplane,1,Reciprocating,,,2,,,VMC,TAKEOFF,N9351K,Business
344,20110624X95046,06/20/2011,"San Antonio, TX",United States,29.533611,-98.469723,,Incident,,Airplane,,Turbo Fan,,3,,,,VMC,,N680GR,Business
345,20110620X10547,06/18/2011,"Albia, IA",United States,40.996389,-92.765556,4C8,Non-Fatal,Substantial,Airplane,1,Reciprocating,,,,1,,VMC,DESCENT,N900SR,Business
346,20110621X23341,06/17/2011,"Jefferson, OR",United States,44.769723,-122.968334,21OG,Non-Fatal,Substantial,Airplane,1,Turbo Prop,,1,,,,VMC,LANDING,N260HC,Business
347,20110617X55545,06/16/2011,"Le Center, MN",United States,44.466667,-93.750000,,Non-Fatal,Substantial,Balloon,0,,,3,1,1,,VMC,LANDING,N5595L,Business
348,20110616X82736,06/15/2011,"Nashville, TN",United States,36.173611,-86.889166,JWN,Non-Fatal,Substantial,Airplane,2,Turbo Fan,,5,,,,IMC,LANDING,N129SG,Business
349,20110615X72742,06/12/2011,"Reichelheim, Germany",Germany,,,,Fatal(1),Substantial,,,,,3,,,1,VMC,,,Business
350,20110601X80900,06/01/2011,"Wendover, UT",United States,40.723334,-114.040555,KENV,Fatal(4),Substantial,Airplane,1,Reciprocating,,,,,4,VMC,GO-AROUND,N475ER,Business
351,20110527X05815,05/26/2011,"Sedona, AZ",United States,34.842222,-111.786389,KSEZ,Non-Fatal,Substantial,Airplane,1,Reciprocating,,1,,,,VMC,LANDING,N7792P,Business
352,20110519X45205,05/19/2011,"Salem, OH",United States,40.948055,-80.861944,38D,Non-Fatal,Substantial,Airplane,1,Turbo Prop,,3,,1,,IMC,APPROACH,N1UL,Business
353,20110504X12246,04/21/2011,"Teterboro, NJ",United States,40.838611,-74.060278,TEB,Non-Fatal,Substantial,Airplane,2,Turbo Fan,,4,,,,VMC,LANDING,N113CS,Business
354,20110421X32739,04/21/2011,"Ocala, FL",United States,29.171945,-82.224167,OCF,Non-Fatal,Substantial,Airplane,1,Reciprocating,,1,,,,VMC,LANDING,N334J,Business
355,20110425X02736,04/13/2011,"Venice, LA",United States,28.950278,-89.385833,,Non-Fatal,Substantial,Helicopter,1,Turbo Shaft,,,1,,,VMC,TAXI,N887T,Business
356,20110328X81528,03/28/2011,"Canadian, TX",United States,35.890277,-100.402222,HHF,Non-Fatal,Substantial,Airplane,2,Turbo Prop,NSCH,3,4,,,IMC,LANDING,N410VE,Business
357,20110404X65832,03/23/2011,"Sellersburg, IN",United States,38.365556,-85.738333,KJVY,Non-Fatal,Substantial,Airplane,2,Turbo Fan,,3,,,,VMC,LANDING,N303FZ,Business
358,20110317X93308,03/17/2011,"Iowa, LA",United States,30.240833,-93.018334,,Non-Fatal,Substantial,Helicopter,1,Reciprocating,,2,,,,VMC,LANDING,N11CU,Business
359,20110613X12828,03/12/2011,"Iqaluit, Canada",Canada,,,CYFB,Incident,Minor,Airplane,2,Turbo Fan,,3,,,,,,N818RC,Business
360,20110315X35559,03/11/2011,"Carbondale, IL",United States,37.701111,-89.249166,,Non-Fatal,Substantial,Airplane,1,Reciprocating,,1,,,,VMC,,N521RT,Business
361,20110317X75846,02/27/2011,"Al Ain, United Arab Emirates",United Arab Emirates,,,OMAL,Fatal(4),Destroyed,Airplane,2,Turbo Prop,NSCH,,,,4,,,N221AG,Business
362,20110226X81430,02/26/2011,"Fort Pierce, FL",United States,27.359444,-89.485833,,Non-Fatal,Substantial,Helicopter,1,Reciprocating,,1,2,,,VMC,,N5689B,Business
363,20110223X51944,02/21/2011,"Romeoville, IL",United States,41.608056,-88.102778,LOT,Non-Fatal,Substantial,Airplane,2,Reciprocating,,1,,,,VMC,LANDING,N119RS,Business
364,20110220X82019,02/20/2011,"Holdenville, OK",United States,35.085833,-96.416667,F99,Non-Fatal,Substantial,Airplane,1,Reciprocating,,3,,,,VMC,TAKEOFF,N8310L,Business
365,20110223X01821,02/18/2011,"Vereda Galan, Colombia",Colombia,7.325000,-73.140277,,Fatal(4),Destroyed,Helicopter,1,,,,,,4,IMC,,,Business
366,20110213X31950,02/10/2011,"Baltimore, MD",United States,39.175278,-76.668334,BWI,Non-Fatal,Substantial,Airplane,2,Reciprocating,SCHD,1,,,,VMC,,N31NW,Business
367,20110209X12851,02/07/2011,"Danville, IL",United States,40.199722,-87.595555,KDNV,Non-Fatal,Substantial,Airplane,1,Reciprocating,,3,,,,VMC,LANDING,N6XZ,Business
368,20101216X50647,12/16/2010,"Moline, IL",United States,41.448055,-90.507500,MLI,Non-Fatal,Substantial,Airplane,1,Reciprocating,,,2,,,IMC,LANDING,N2187H,Business
369,20101116X70645,11/13/2010,"Trujillo, Colombia",Colombia,4.299166,-76.435277,,Fatal(3),Destroyed,Helicopter,2,Turbo Shaft,,,,,3,IMC,,,Business
370,20101106X54407,11/06/2010,"Fitchburg, MA",United States,42.548333,-71.750278,FIT,Fatal(1),Substantial,Airplane,1,Reciprocating,,,,1,1,VMC,APPROACH,N164US,Business
371,20101108X91810,11/04/2010,"Fruitvale, TX",United States,32.684722,-95.783889,,Non-Fatal,Substantial,Airplane,1,Reciprocating,,,,1,,VMC,DESCENT,N971WA,Business
372,20101025X62111,10/25/2010,"Morton, WA",United States,46.605556,-122.101389,,Fatal(3),Substantial,Airplane,2,Reciprocating,,,,,3,IMC,MANEUVERING,N68718,Business
373,20101029X90010,10/23/2010,"New Castle, United Kingdom",United Kingdom,54.230278,6.170834,,Fatal(3),Destroyed,Helicopter,,,NSCH,,,,3,,,N2NR,Business
374,20101108X91241,10/20/2010,"Breakenridge, TX",United States,32.718611,-98.890555,BKD,Non-Fatal,Substantial,Airplane,1,Reciprocating,,1,,,,VMC,LANDING,C-FGAT,Business
375,20101006X70849,10/05/2010,"Columbia, SC",United States,33.926111,-81.122223,CAE,Non-Fatal,Substantial,Airplane,1,Reciprocating,,1,1,,,VMC,TAKEOFF,N21415,Business
376,20101001X13012,09/30/2010,"Spokane, WA",United States,47.682778,-117.322500,SFF,Non-Fatal,Substantial,Airplane,1,Turbo Prop,,5,,,,VMC,LANDING,N90SE,Business
377,20101006X50226,09/30/2010,"Bedfordshire, United Kingdom",United Kingdom,,,,Incident,,,,,,8,,,,,,,Business
378,20100924X23946,09/17/2010,"Duluth, MN",United States,47.008333,-92.215000,DLH,Non-Fatal,Destroyed,Helicopter,1,Reciprocating,,,1,,,VMC,TAKEOFF,N145DM,Business
379,20100916X10056,09/17/2010,"Pikes Peak, CO",United States,38.837500,-105.043055,,Non-Fatal,Substantial,Helicopter,2,Turbo Shaft,,,3,1,,VMC,LANDING,N5802W,Business
380,20100921X54226,09/15/2010,"Hazard, KY",United States,37.385833,-83.256944,K20,Non-Fatal,Substantial,Airplane,1,Reciprocating,,1,,,,VMC,TAXI,N1156U,Business
381,20100916X94754,09/12/2010,"Ft. Wayne, IN",United States,41.197500,-84.845277,,Non-Fatal,,Balloon,0,,,2,,1,,VMC,LANDING,N2064W,Business
382,20100912X64456,09/12/2010,"Farmington, NM",United States,36.738055,-108.224445,FMN,Non-Fatal,Substantial,Airplane,1,Reciprocating,,1,,,,VMC,LANDING,N24WW,Business
383,20100908X05150,09/08/2010,"Helena, GA",United States,32.139722,-82.854167,MQW,Fatal(1),Substantial,Airplane,1,Reciprocating,,,,1,1,IMC,APPROACH,N804GK,Business
384,20100830X30919,08/30/2010,"Belgrade, MT",United States,45.683889,-111.262222,KBZN,Fatal(1),Substantial,Airplane,1,Reciprocating,,,,,1,IMC,MANEUVERING,N8957T,Business
385,20100809X84516,08/04/2010,"Vici, OK",United States,36.141666,-99.303333,501,Non-Fatal,Substantial,Airplane,2,Reciprocating,,5,,,,VMC,LANDING,N414TT,Business
386,20100803X14134,07/29/2010,"Libertad, Uruguay",Uruguay,,,,Fatal(1),Substantial,Helicopter,1,Turbo Shaft,,1,,,1,VMC,,N527TK,Business
387,20100729X10458,07/27/2010,"New York, NY",United States,40.639722,-73.778889,JFK,Non-Fatal,Substantial,Airplane,2,Turbo Fan,,6,,,,VMC,TAXI,N905LP,Business
388,20100728X70427,07/27/2010,"Oshkosh, WI",United States,43.975278,-88.558056,OSH,Non-Fatal,Substantial,Airplane,2,Turbo Fan,,,,2,,VMC,GO-AROUND,N6JR,Business
389,20100726X85651,07/18/2010,"Coeur d'Alene, ID",United States,47.774445,-116.819723,KCOE,Non-Fatal,Substantial,Airplane,1,Reciprocating,,1,,,,VMC,LANDING,N619VM,Business
390,20100711X15942,07/10/2010,"Tulsa, OK",United States,36.215556,-95.898611,TUL,Fatal(3),Substantial,Airplane,2,Reciprocating,,,,,3,VMC,APPROACH,N88DF,Business
391,20100630X43957,06/27/2010,"Caldwell, ID",United States,43.641666,-116.635555,KEUL,Non-Fatal,Substantial,Airplane,1,Reciprocating,,1,,,,VMC,STANDING,N86PB,Business
392,20100628X53421,06/26/2010,"Lake Charles, LA",United States,30.206389,-93.139166,CWF,Non-Fatal,Substantial,Helicopter,1,Turbo Shaft,,2,,,,VMC,,N191EH,Business
393,20100608X41852,06/07/2010,"Leeds, United Kingdom",United Kingdom,53.865833,-1.660556,,Non-Fatal,Substantial,Airplane,2,Turbo Fan,,2,,,,,,N646VP,Business
394,20100602X45201,06/01/2010,"Anchorage, AK",United States,61.215556,-149.867223,MRI,Fatal(1),Substantial,Airplane,1,Reciprocating,,,,4,1,VMC,TAKEOFF,N59352,Business
395,20100519X44533,05/17/2010,"Lucena City, Philippines, Philippines",Philippines,13.933333,121.604722,,Fatal(4),Destroyed,Helicopter,,,,,,,4,,,,Business
396,20100519X82205,05/15/2010,"Seward, AK",United States,60.233333,-149.383333,,Non-Fatal,Substantial,Helicopter,1,Reciprocating,,2,,,,VMC,LANDING,N81191,Business
397,20100518X23809,05/06/2010,"Cape Yakataga, AK",United States,60.200000,-142.033611,,Non-Fatal,Substantial,Airplane,1,Reciprocating,,2,,,,VMC,LANDING,N90918,Business
398,20100503X33523,04/30/2010,"El Paso, TX",United States,31.816667,-106.350000,ELP,Non-Fatal,Substantial,Airplane,1,Reciprocating,,,2,,,VMC,CRUISE,N3692Q,Business
399,20100428X51555,04/23/2010,"Clemson, SC",United States,34.669723,-82.885277,CEU,Non-Fatal,Substantial,Airplane,1,Reciprocating,,1,,,,VMC,TAKEOFF,N364ST,Business
400,20100420X00326,04/16/2010,"Parkersburg, WV",United States,39.345277,-81.439166,PKB,Non-Fatal,Substantial,Airplane,1,Reciprocating,,2,,,,VMC,LANDING,N779MA,Business
401,20100404X92336,04/03/2010,"Princeton, KY",United States,37.108889,-87.854167,2M0,Non-Fatal,Substantial,Airplane,2,Turbo Prop,,,1,,,VMC,LANDING,N29WD,Business
402,20100405X13924,04/01/2010,"Wichita Falls, TX",United States,,,CWC,Non-Fatal,Substantial,Airplane,1,Reciprocating,,1,,,,VMC,TAXI,N3320U,Business
403,20100325X41649,03/24/2010,"Terry, MT",United States,46.777223,-105.313056,8U6,Non-Fatal,Substantial,Airplane,1,Reciprocating,,2,,,,VMC,APPROACH,N3351Z,Business
404,20100319X35533,03/19/2010,"Morton, WA",United States,46.566667,-122.311389,39P,Fatal(1),Substantial,Airplane,1,Reciprocating,,,,1,1,VMC,,N224GS,Business
405,20100319X10454,03/18/2010,"Artesia, NM",United States,31.850000,-104.466667,KATS,Non-Fatal,Substantial,Airplane,2,Reciprocating,,2,,,,VMC,APPROACH,N3382Q,Business
406,20100311X50619,03/10/2010,"Tegucigalpa, Honduras",Honduras,14.067223,-87.260000,MHTG,Fatal(3),Destroyed,Airplane,2,Reciprocating,,,,,3,VMC,,,Business
407,20100306X05331,03/06/2010,"Cotulla, TX",United States,28.602500,-99.338055,,Fatal(2),Substantial,Helicopter,1,Reciprocating,,,,,2,VMC,MANEUVERING,N922SH,Business
408,20100306X65115,03/05/2010,"Miami, FL",United States,25.647777,-80.432778,TMB,Non-Fatal,Substantial,Airplane,1,Reciprocating,,1,,,,VMC,TAXI,N34VF,Business
409,20100302X85127,03/01/2010,"Greensboro, NC",United States,36.101389,-79.938055,GSO,Non-Fatal,Substantial,Airplane,2,Turbo Prop,,1,,,,VMC,LANDING,N29JS,Business
410,20100302X80100,03/01/2010,"Gaithersburg, MD",United States,39.168334,-77.166111,GAI,Non-Fatal,Substantial,Airplane,1,Turbo Prop,,1,,,,VMC,LANDING,N700ZR,Business
411,20100217X01727,02/17/2010,"Amarillo, TX",United States,5.782223,-101.845277,TDW,Fatal(2),Substantial,Airplane,2,Reciprocating,,,,,2,VMC,STANDING,N8501Y,Business
412,20100212X05854,02/12/2010,"Forest City, IA",United States,43.234722,-93.624167,FXY,Fatal(1),Substantial,Airplane,2,Turbo Prop,,,,,1,VMC,APPROACH,N250TT,Business
413,20100124X04040,01/23/2010,"Sugar Grove, IL",United States,41.801667,-88.461667,KARR,Fatal(2),Destroyed,Airplane,2,Reciprocating,,,,,2,IMC,CLIMB,N222AQ,Business
414,20100121X11234,01/19/2010,"Sioux City, IA",United States,,,SUX,Non-Fatal,Substantial,Airplane,2,Turbo Prop,,4,,,,IMC,LANDING,N586BC,Business
415,20100111X10557,01/08/2010,"Eagle, CO",United States,,,KEGE,Non-Fatal,Substantial,Airplane,2,,,7,,,,VMC,TAKEOFF,XA-PCC,Business
416,20091209X94124,12/09/2009,"Eagle Pass, TX",United States,,,5T9,Fatal(1),Destroyed,Airplane,1,Reciprocating,,,,,1,IMC,APPROACH,N1105N,Business
417,20091208X31224,12/07/2009,"Egelsbach, Germany",Germany,,,EDFE,Fatal(3),Destroyed,Airplane,2,,,,,,3,IMC,,,Business
418,20091114X40724,11/14/2009,"Fort Myers, FL",United States,26.586389,-81.863056,FMY,Non-Fatal,Substantial,Airplane,1,Reciprocating,,,3,,,VMC,LANDING,N3823,Business
419,20090925X04301,09/24/2009,"Houma, LA",United States,29.541666,-90.663333,HUM,Fatal(1),Destroyed,Airplane,1,Reciprocating,,,,,1,IMC,TAKEOFF,N96894,Business
420,20090911X64138,09/04/2009,"Sugar Land, TX",United States,29.620000,-95.653889,SGR,Incident,Minor,Airplane,2,Reciprocating,,1,,,,VMC,OTHER,N2349S,Business
421,20091022X84611,09/01/2009,"Rio Blanco, CO",United States,39.725556,-108.138889,NONE,Non-Fatal,Substantial,Airplane,1,Reciprocating,,1,,,,VMC,LANDING,N6686E,Business
422,20090827X85529,08/26/2009,"White Plains, NY",United States,41.066945,-73.707500,HPN,Non-Fatal,Substantial,Helicopter,1,Turbo Shaft,,1,,,,VMC,TAKEOFF,N22ZA,Business
423,20090724X05537,07/23/2009,"Boonsboro, MD",United States,39.541389,-77.606389,,Fatal(4),Substantial,Helicopter,1,Reciprocating,,,,,4,VMC,,N7189W,Business
424,20090719X91401,07/17/2009,"Hayesville, NC",United States,35.150556,-83.748055,,Fatal(1),Destroyed,Airplane,1,Reciprocating,,,,,1,IMC,DESCENT,N778RK,Business
425,20090706X93541,07/04/2009,"Manteo, NC",United States,35.918889,-75.695555,MQI,Non-Fatal,Substantial,Airplane,1,Reciprocating,,,3,,,VMC,STANDING,N32132,Business
426,20090707X52718,07/01/2009,"Santa Teresa, NM",United States,31.881111,-106.704722,5T6,Non-Fatal,Substantial,Airplane,1,Reciprocating,,1,,,,VMC,APPROACH,N2118S,Business
427,20090625X92045,06/24/2009,"Ashville, OH",United States,39.778056,-82.884722,,Non-Fatal,Substantial,Airplane,1,Reciprocating,,1,,,,VMC,APPROACH,N19PP,Business
428,20090621X30522,06/19/2009,"Wellington, CO",United States,40.701389,-105.003333,4CO2,Non-Fatal,Substantial,Glider,0,,,2,,,,VMC,TAKEOFF,N5462N,Business
429,20090710X11929,06/15/2009,"South Haven, MI",United States,42.351111,-86.255556,LWA,Non-Fatal,Substantial,Airplane,1,Reciprocating,,1,,,,VMC,LANDING,N9010R,Business
430,20090615X70044,06/13/2009,"Marathon City, WI",United States,44.975556,-89.816389,,Non-Fatal,Minor,Balloon,0,,,1,3,1,,VMC,LANDING,N9116M,Business
431,20090602X13218,05/31/2009,"Fremont, NE",United States,41.458333,-96.405278,KFET,Non-Fatal,,Balloon,0,,,3,,1,,VMC,LANDING,N31802,Business
432,20090527X04910,05/25/2009,"Albuquerque, NM",United States,,,,Non-Fatal,,Balloon,0,,,4,,1,,VMC,LANDING,N120RB,Business
433,20090521X25139,05/18/2009,"Tacoma, WA",United States,47.268056,-122.578056,TIW,Non-Fatal,Substantial,Airplane,1,Reciprocating,,1,,,,IMC,LANDING,N70083,Business
434,20090511X95840,05/07/2009,"Veracruz, Mexico",Mexico,19.193055,-96.194444,MMVR,Fatal(3),Destroyed,Airplane,2,Reciprocating,,,,1,3,VMC,,,Business
435,20090430X41842,04/29/2009,"Patterson, LA",United States,29.604444,-91.473056,,Non-Fatal,Substantial,Airplane,1,Reciprocating,,,2,,,VMC,MANEUVERING,N4603E,Business
436,20090428X81708,04/28/2009,"Mayfield Village, OH",United States,41.559167,-81.436944,CGF,Fatal(2),Destroyed,Airplane,1,Reciprocating,,,,,2,IMC,TAKEOFF,N504MD,Business
437,20090330X10504,03/29/2009,"Salt Lake City, UT",United States,40.795833,-111.961667,KSLC,Non-Fatal,Substantial,Airplane,2,Turbo Fan,,3,,,,VMC,LANDING,N44FR,Business
438,20090323X84621,03/20/2009,"Prescott, AZ",United States,34.699722,-112.670834,,Non-Fatal,Substantial,Helicopter,1,Reciprocating,,2,,,,VMC,MANEUVERING,N90764,Business
439,20090309X15351,03/06/2009,"Harrold, SD",United States,44.522223,-99.738889,5G3,Non-Fatal,Substantial,Airplane,1,Turbo Prop,,,1,,,VMC,MANEUVERING,N648LA,Business
440,20090317X75000,02/19/2009,"Tocumen, Panama",Panama,9.066667,-78.392500,PTY,Fatal(3),Destroyed,Helicopter,1,Reciprocating,,0,0,0,3,VMC,,,Business
441,20090227X04200,02/12/2009,"Samedan, Switzerland",Switzerland,,,LSZS,Fatal(2),Destroyed,Airplane,,Turbo Fan,,0,0,1,2,VMC,,,Business
442,20090202X21409,01/31/2009,"Cypress, TX",United States,29.935277,-95.639722,EYQ,Non-Fatal,Minor,Airplane,1,Reciprocating,,4,,,,VMC,TAKEOFF,N51KT,Business
443,20090123X63004,01/23/2009,"Flagstaff, AZ",United States,34.986111,-111.689444,FLG,Fatal(2),Substantial,Airplane,1,Reciprocating,,,,,2,IMC,CLIMB,N8298Z,Business
444,20081228X52120,12/27/2008,"Fort Myers, FL",United States,26.540555,-81.726667,RSW,Non-Fatal,Substantial,Airplane,2,Reciprocating,,,,1,,VMC,TAKEOFF,N7765N,Business
445,20090204X52521,12/23/2008,"Norfolk, England, United Kingdom",United Kingdom,,,EGSD,Incident,Minor,Helicopter,2,Turbo Shaft,,,,,,,,,Business
446,20081224X95803,12/23/2008,"Lewistown, MO",United States,,,MO09,Non-Fatal,Substantial,Airplane,2,Turbo Fan,,4,,,,VMC,LANDING,N20NL,Business
447,20090105X93800,12/22/2008,"Clovis, NM",United States,34.421667,-103.074167,CVN,Non-Fatal,Substantial,Airplane,1,Turbo Prop,,4,,,,VMC,APPROACH,N70LR,Business
448,20081219X72119,12/17/2008,"Sheridan, WY",United States,44.769167,-106.980278,SHR,Non-Fatal,Substantial,Airplane,1,Reciprocating,,1,,,,VMC,TAKEOFF,N9619T,Business
449,20081214X12133,12/14/2008,"Rocksprings, TX",United States,30.170556,-100.588333,,Fatal(1),Substantial,Airplane,2,Turbo Prop,,,,,1,VMC,,N43KM,Business
450,20081126X80521,11/25/2008,"Fillmore, UT",United States,38.958056,-112.363056,,Non-Fatal,Substantial,Helicopter,1,Turbo Shaft,,1,,,,VMC,,N9154F,Business
451,20081201X75402,11/24/2008,"Vetas, Colombia",Colombia,7.305278,-72.868056,,Fatal(3),Substantial,Helicopter,1,,NSCH,,,,3,VMC,,,Business
452,20081124X30428,11/24/2008,"Whites Creek, TN",United States,36.289722,-86.843055,,Fatal(3),Destroyed,Airplane,2,Reciprocating,,,,,3,IMC,APPROACH,N412ES,Business
453,20090102X71942,11/24/2008,"Asheville, NC",United States,35.436111,-82.541666,AVL,Non-Fatal,Substantial,Airplane,3,Turbo Jet,,5,,,,VMC,STANDING,N200SG,Business
454,20081203X10613,11/20/2008,"Bloomington, IN",United States,39.146111,-86.616667,BMG,Non-Fatal,Substantial,Airplane,1,Reciprocating,,1,,,,VMC,,N3213C,Business
455,20081116X33137,11/16/2008,"Philadelphia, PA",United States,39.868056,-75.238889,PHL,Incident,Minor,Airplane,2,Turbo Prop,SCHD,38,,,,VMC,APPROACH,N326EN,Business
456,20081117X84838,11/16/2008,"Indian Head, MD",United States,38.600278,-77.072778,2W5,Non-Fatal,Substantial,Airplane,1,Reciprocating,,1,,,,VMC,LANDING,N4157,Business
457,20081111X13821,11/11/2008,"Mena, AR",United States,34.669445,-94.318056,MEZ,Fatal(1),Substantial,Airplane,1,Reciprocating,,,,,1,IMC,MANEUVERING,N2526V,Business
458,20081103X30231,11/01/2008,"San Manuel, AZ",United States,32.636389,-110.654722,E77,Non-Fatal,Substantial,Airplane,1,Reciprocating,,1,,,,VMC,LANDING,N2468A,Business
459,20081031X40047,10/29/2008,"Mesa, AZ",United States,33.460833,-111.728334,FFZ,Non-Fatal,Substantial,Airplane,2,Reciprocating,,5,,,,VMC,APPROACH,N421PC,Business
460,20081022X22919,10/21/2008,"Ciudad Victoria, Mexico",Mexico,,,MMCV,Fatal(5),Destroyed,Airplane,2,Reciprocating,,,,,5,,,,Business
461,20081014X03931,10/06/2008,"Oaxaca, Mexico",Mexico,16.983333,-96.716667,OAX,Fatal(2),Destroyed,Airplane,2,Reciprocating,,,,,2,,,,Business
462,20081007X83950,09/28/2008,"Dayton, OH",United States,39.697222,-83.990277,I19,Non-Fatal,Substantial,Airplane,1,,,1,1,,,VMC,LANDING,N9272C,Business
463,20080917X01479,09/10/2008,"Oakland, CA",United States,37.833333,-122.313333,,Non-Fatal,Substantial,Airplane,1,Reciprocating,,2,,,,VMC,MANEUVERING,N6278C,Business
464,20081003X42127,08/26/2008,"Pastaza, Ecuador",Ecuador,,,,Non-Fatal,Substantial,Airplane,1,Reciprocating,,,,2,,VMC,,,Business
465,20080905X01387,08/20/2008,"Baltimore, MD",United States,39.183333,-76.660000,BWI,Non-Fatal,Substantial,Airplane,2,Turbo Prop,,4,,,,VMC,TAKEOFF,N441VB,Business
466,20080903X01365,08/14/2008,"Jasper, TX",United States,30.885555,-94.034722,,Incident,Minor,Airplane,2,Turbo Prop,,1,,,,VMC,TAKEOFF,N688LL,Business
467,20080820X01269,08/14/2008,"Marysville, OH",United States,40.222778,-83.361667,MRT,Fatal(1),Destroyed,Airplane,2,Reciprocating,,,,,1,VMC,APPROACH,N715TB,Business
468,20080919X01503,08/09/2008,"St Paul, MN",United States,44.934722,-93.060278,STP,Non-Fatal,Substantial,Airplane,2,Turbo Jet,,1,,,,VMC,,N69X,Business
469,20080729X01124,07/28/2008,"Colorado Springs, CO",United States,38.969723,-104.813056,AFF,Incident,Substantial,Airplane,1,Reciprocating,,1,,,,VMC,APPROACH,N601RN,Business
470,20080826X01326,07/23/2008,"Amberg, WI",United States,45.483889,-87.976944,,Non-Fatal,Substantial,Helicopter,1,Reciprocating,,1,,,,VMC,,N8626E,Business
471,20080808X01191,07/02/2008,"Alexandria, MN",United States,,,AXN,Non-Fatal,Substantial,Airplane,2,Reciprocating,,,4,,,VMC,TAKEOFF,N601TS,Business
472,20080812X01225,06/27/2008,"Fullerton, CA",United States,33.871945,-117.979723,FUL,Non-Fatal,Substantial,Airplane,1,Reciprocating,,1,,,,VMC,,N1296M,Business
473,20080825X01304,06/20/2008,"Montgomery, AL",United States,32.300278,-86.389722,MGM,Non-Fatal,Substantial,Airplane,1,Reciprocating,,,1,,,VMC,APPROACH,N3681T,Business
474,20080618X00881,06/14/2008,"Topanga, CA",United States,34.113611,-118.640277,,Non-Fatal,Substantial,Helicopter,1,Reciprocating,,0,3,0,0,VMC,,N168AG,Business
475,20080627X00931,06/09/2008,"Fall RiverMills, CA",United States,41.061111,-124.027778,NONE,Non-Fatal,Substantial,Airplane,1,Reciprocating,,2,,,,VMC,,N273CC,Business
476,20080611X00835,06/08/2008,"Bend, OR",United States,44.094444,-121.200278,KBDN,Non-Fatal,Substantial,Airplane,1,Reciprocating,,2,,,,VMC,,N199L,Business
477,20080612X00845,06/05/2008,"Chicago, IL",United States,41.785833,-87.752500,MDW,Incident,,Airplane,2,Turbo Fan,,4,,,,VMC,APPROACH,N612KB,Business
478,20080515X00684,05/10/2008,"Austin, TX",United States,30.190000,-97.668611,,Non-Fatal,Substantial,Helicopter,1,Reciprocating,,2,0,0,0,VMC,MANEUVERING,N8316D,Business
479,20080516X00688,05/09/2008,"Yurimaguas, Peru",Peru,-5.886944,-76.130278,,Non-Fatal,Substantial,,,,,4,,,,VMC,,,Business
480,20080501X00580,04/30/2008,"Port Heiden, AK",United States,56.950000,-158.000000,PAPH,Non-Fatal,Substantial,Airplane,2,Turbo Fan,,6,,,,VMC,LANDING,N590AK,Business
481,20080610X00821,04/25/2008,"Coaldale, NV",United States,38.117223,-118.006944,NONE,Non-Fatal,Substantial,Airplane,1,Reciprocating,,3,,,,VMC,,N6182N,Business
482,20080505X00591,04/21/2008,"Kodiak, AK",United States,57.750000,-152.493889,PADQ,Non-Fatal,Substantial,Airplane,1,Reciprocating,,3,0,0,0,VMC,LANDING,N3043E,Business
483,20080515X00681,04/13/2008,"Buckeye, AZ",United States,33.497500,-112.510833,,Non-Fatal,,Balloon,0,,,10,,1,,VMC,,N35EX,Business
484,20080414X00465,04/08/2008,"Colorado Spring, CO",United States,38.805556,-104.700556,,Non-Fatal,Substantial,Airplane,2,Turbo Fan,,5,,,,VMC,TAKEOFF,N483BA,Business
485,20080411X00455,04/07/2008,"Paducah, TX",United States,34.158056,-100.167500,,Non-Fatal,Substantial,,1,Reciprocating,,2,,,,VMC,,N5300L,Business
486,20080410X00449,04/02/2008,"Benson, AZ",United States,31.999444,-110.361944,E95,Fatal(2),Substantial,Airplane,2,Reciprocating,,,,,2,VMC,GO-AROUND,N20480,Business
487,20080804X01152,03/28/2008,"Wainwright, Canada",Canada,52.908889,-110.683889,,Fatal(5),Destroyed,,,,,,,,5,IMC,,,Business
488,20080417X00511,03/20/2008,"New Albany, MS",United States,34.548611,-89.024167,M72,Non-Fatal,Substantial,Airplane,1,Reciprocating,,2,,,,VMC,TAKEOFF,N3304W,Business
489,20080318X00327,03/08/2008,"Stuart, FL",United States,27.175556,-80.219167,SUA,Non-Fatal,Substantial,Airplane,2,Turbo Fan,,2,,,,VMC,,N400GG,Business
490,20080311X00297,03/04/2008,"Oklahoma City, OK",United States,35.472223,-97.667223,,Fatal(5),Destroyed,Airplane,2,Turbo Jet,,,,,5,VMC,TAKEOFF,N113SH,Business
491,20080319X00336,02/21/2008,"Cumberland, MD",United States,39.642500,-78.698333,CBE,Fatal(2),Substantial,Airplane,1,Reciprocating,,,,,2,IMC,APPROACH,N3815T,Business
492,20080310X00292,02/12/2008,"Leesburg, VA",United States,39.077778,-77.557500,JYO,Non-Fatal,Substantial,Airplane,1,Turbo Fan,,2,,,,VMC,LANDING,N16DK,Business
493,20080220X00221,02/12/2008,"Englewood, CO",United States,39.570000,-104.849166,APA,Non-Fatal,Substantial,,1,Reciprocating,,2,,,,VMC,,N34KF,Business
494,20080228X00246,02/09/2008,"Carefree, AZ",United States,33.818056,-111.897777,18AZ,Non-Fatal,Substantial,Airplane,1,Reciprocating,,1,,,,VMC,LANDING,N4796K,Business
495,20080318X00329,01/16/2008,"Hereford, TX",United States,34.857778,-102.327223,KHRX,Non-Fatal,Substantial,Airplane,2,Reciprocating,,2,,,,VMC,,N42SM,Business
496,20080215X00202,01/15/2008,"Fenner, NY",United States,42.997777,-75.786944,SYR,Non-Fatal,Substantial,Helicopter,1,Reciprocating,,3,1,,,IMC,,N122AA,Business
497,20080210X00166,01/02/2008,"Brunswick, GA",United States,31.151667,-81.391111,SSI,Non-Fatal,Substantial,Airplane,1,Reciprocating,,3,,,,VMC,,N724BB,Business
498,20080201X00129,12/20/2007,"Chub Cay, Bahamas",Bahamas,25.550556,-78.298333,,Non-Fatal,Substantial,,,,,2,,,,VMC,,N954PA,Business
499,20080123X00099,12/07/2007,"Battle Mountain, NV",United States,40.600000,-116.866667,BAM,Non-Fatal,Substantial,Airplane,2,Turbo Prop,,2,,,,IMC,LANDING,C-GPIA,Business
500,20071227X01997,12/05/2007,"Augusta, GA",United States,33.481389,-82.040833,,Fatal(1),Substantial,Airplane,1,Reciprocating,,,,,1,VMC,CRUISE,N43274,Business
501,20071127X01856,11/11/2007,"Sugar Land, TX",United States,29.633056,-95.655556,KSGR,Non-Fatal,Substantial,Airplane,2,Turbo Fan,,8,0,0,0,VMC,LANDING,N209LS,Business
502,20071121X01830,11/06/2007,"Garberville, CA",United States,40.075834,-123.816667,O16,Fatal(3),Destroyed,Airplane,2,Reciprocating,,0,0,0,3,IMC,APPROACH,N5049Q,Business
503,20071108X01768,11/06/2007,"Opa Locka, FL",United States,25.904167,-80.273611,OPF,Non-Fatal,Substantial,Airplane,1,Turbo Prop,NSCH,2,,,,VMC,TAXI,N701SE,Business
504,20080104X00017,11/01/2007,"Lafayette, IN",United States,40.412222,-86.936944,LAF,Non-Fatal,Substantial,Airplane,1,Reciprocating,,1,,,,VMC,CRUISE,N5912Q,Business
505,20071121X01835,10/31/2007,"Stockton, CA",United States,38.066389,-121.408333,NONE,Non-Fatal,Substantial,Airplane,1,Reciprocating,,2,,,,VMC,TAXI,N4153M,Business
506,20071102X01707,10/29/2007,"Santa Ana, CA",United States,33.675556,-117.868056,SNA,Non-Fatal,Substantial,,2,Turbo Fan,,8,,,,VMC,TAKEOFF,N800CC,Business
507,20071101X01699,10/28/2007,"Los Alamos, NM",United States,35.874445,-106.268056,LAM,Non-Fatal,Substantial,,1,Reciprocating,,2,,,,VMC,APPROACH,N8251M,Business
508,20080215X00197,10/27/2007,"Yao-City, Japan",Japan,34.533333,135.500000,,Fatal(2),Substantial,,,,,,,,2,,,,Business
509,20071105X01726,10/26/2007,"Cedar City, UT",United States,37.429167,-112.913333,,Fatal(2),Destroyed,Airplane,1,Reciprocating,,0,0,0,2,VMC,CRUISE,N3971X,Business
510,20071030X01686,10/17/2007,"Goodland, KS",United States,39.368889,-101.692777,GLD,Non-Fatal,Substantial,Airplane,2,Turbo Fan,,2,,,,IMC,LANDING,N31MC,Business
511,20080328X00395,10/12/2007,"Bogota, Colombia",Colombia,4.701389,-74.146944,,Fatal(7),Substantial,,,,,,,,7,VMC,,,Business
512,20071012X01568,10/11/2007,"Memphis, TN",United States,35.042222,-89.976667,KMEM,Incident,,,,,,5,,,,VMC,TAKEOFF,,Business
513,20071126X01836,10/11/2007,"Atlanta, GA",United States,33.875556,-84.301944,PDK,Non-Fatal,Substantial,,1,Reciprocating,,3,,,,VMC,LANDING,N383SA,Business
514,20071119X01806,09/22/2007,"Emporia, KS",United States,38.331945,-96.191111,,Incident,,,2,Turbo Prop,,8,,,,VMC,CRUISE,N871KS,Business
515,20071004X01503,09/20/2007,"Hartsel, CO",United States,38.150000,-105.133333,,Non-Fatal,,Balloon,0,,,4,,1,,VMC,LANDING,N5294D,Business
516,20070923X01430,09/12/2007,"Fort Stockton, TX",United States,31.363889,-103.019445,,Non-Fatal,Substantial,Helicopter,1,Reciprocating,,0,1,1,0,VMC,CLIMB,N993KC,Business
517,20071011X01565,09/12/2007,"Keene, ND",United States,47.940555,-102.890555,,Non-Fatal,Substantial,Airplane,1,Reciprocating,,,1,,,VMC,TAKEOFF,N40325,Business
518,20071012X01579,09/11/2007,"Stanwood, WA",United States,48.254167,-122.435277,13W,Non-Fatal,Destroyed,Helicopter,1,Turbo Shaft,,2,1,,,VMC,LANDING,N6014U,Business
519,20070920X01422,09/05/2007,"Lakeland, FL",United States,27.988889,-82.018611,LAL,Non-Fatal,Substantial,Helicopter,1,Turbo Shaft,,4,0,0,0,VMC,DESCENT,N267MW,Business
520,20071011X01557,08/30/2007,"Atlantic, IA",United States,41.403611,-95.048611,KAIO,Non-Fatal,Substantial,Airplane,1,Reciprocating,,1,,,,VMC,LANDING,N2540T,Business
521,20071005X01521,08/15/2007,"Alton, IL",United States,38.890555,-90.184166,ALN,Incident,Minor,Airplane,1,Reciprocating,,1,0,0,0,VMC,DESCENT,N3120T,Business
522,20070911X01363,08/15/2007,"Front Royal, VA",United States,38.917223,-78.252222,KFRR,Non-Fatal,Substantial,Airplane,1,Reciprocating,,1,,,,VMC,LANDING,N6455R,Business
523,20070821X01220,08/14/2007,"Wichita, KS",United States,37.747500,-97.221111,AAO,Non-Fatal,Substantial,,1,Reciprocating,,2,,,,VMC,LANDING,N395MR,Business
524,20071127X01848,08/12/2007,"Zihuatanejo, Mexico",Mexico,,,,Fatal(3),Destroyed,,,,,,,,3,VMC,,,Business
525,20070802X01086,08/01/2007,"Broomfield, CO",United States,39.908889,-105.117223,BJC,Non-Fatal,Substantial,,1,Turbo Shaft,,2,2,,,VMC,TAKEOFF,N568TD,Business
526,20070920X01425,08/01/2007,"Anaktuvuk Pass, AK",United States,68.687777,-151.880834,,Non-Fatal,Substantial,Airplane,1,Reciprocating,,1,,,,VMC,APPROACH,N40832,Business
527,20071205X01897,07/31/2007,"Melbourne, VIC, Australia",Australia,-37.356389,145.098611,,Fatal(2),Destroyed,,,,,,,,2,VMC,,,Business
528,20070904X01301,07/27/2007,"Wallkill, NY",United States,41.627778,-74.133611,N45,Non-Fatal,Substantial,Airplane,2,Turbo Prop,,3,,,,VMC,LANDING,N435A,Business
529,20070824X01237,07/24/2007,"Baker City, OR",United States,44.837222,-117.808889,BKE,Non-Fatal,Substantial,Airplane,1,Reciprocating,,2,,,,VMC,LANDING,N7380S,Business
530,20070908X01329,07/22/2007,"Battle Mountain, NV",United States,40.599166,-116.874445,BAM,Non-Fatal,Substantial,,2,Reciprocating,,,2,,,VMC,LANDING,N275JM,Business
531,20080206X00140,07/17/2007,"Custer, SD",United States,,,,Non-Fatal,,,,,,12,,1,,VMC,LANDING,N5069B,Business
532,20070807X01125,07/03/2007,"Loveland, CO",United States,40.451944,-105.011389,FNL,Non-Fatal,Substantial,Airplane,1,Reciprocating,,2,,,,VMC,LANDING,N5129C,Business
533,20070723X00996,06/10/2007,"Novato, CA",United States,38.143611,-122.556111,KDVO,Non-Fatal,Substantial,Airplane,1,Reciprocating,,3,,,,VMC,LANDING,N171SR,Business
534,20070806X01122,06/08/2007,"Gallatin, TN",United States,36.406667,-86.358889,M33,Non-Fatal,Substantial,Airplane,1,Reciprocating,,0,2,2,0,VMC,DESCENT,N729P,Business
535,20081219X65334,06/04/2007,"Bismarck, ND",United States,,,KBIS,Incident,Minor,Airplane,2,Turbo Fan,,2,,,,,TAKEOFF,N136DH,Business
536,20070626X00805,06/01/2007,"Zurich, Switzerland",Switzerland,47.458889,8.872778,,Non-Fatal,Minor,,,,,9,,,,VMC,,,Business
537,20071108X01758,05/25/2007,"Acaricuara, Colombia",Colombia,0.700000,-70.383333,,Unavailable,Substantial,,,,,,,,,VMC,,,Business
538,20070828X01251,05/09/2007,"Fairmont, WV",United States,39.448333,-80.166389,4G7,Non-Fatal,Substantial,Airplane,1,Reciprocating,,1,,,,VMC,LANDING,N38730,Business
539,20070518X00596,05/09/2007,"London, United Kingdom",United Kingdom,,,,Incident,,,,,,7,,,,,,N757CX,Business
540,20070509X00539,05/02/2007,"Canadian, TX",United States,35.890555,-100.402222,HHF,Fatal(1),Substantial,,1,Reciprocating,,,,,1,IMC,MANEUVERING,N10028,Business
541,20070516X00572,04/28/2007,"Palma Real, Honduras",Honduras,,,,Fatal(1),Destroyed,,,,,,,,1,IMC,,,Business
542,20070518X00590,04/22/2007,"Cottonwood, ID",United States,46.500000,-116.433333,NONE,Non-Fatal,Substantial,Airplane,1,Reciprocating,,2,,,,VMC,LANDING,N29100,Business
543,20070514X00559,04/17/2007,"Concord, CA",United States,37.989722,-122.056944,CCR,Non-Fatal,Substantial,Airplane,1,Reciprocating,,1,,,,VMC,LANDING,N3115U,Business
544,20070430X00483,04/11/2007,"Wheeling, IL",United States,42.114167,-87.901389,PWK,Non-Fatal,Substantial,,2,Turbo Prop,,5,,,,IMC,TAKEOFF,N125WG,Business
545,20070418X00431,04/10/2007,"Bird Cay, Bahamas",Bahamas,25.362778,-77.625834,,Fatal(2),Destroyed,,1,Reciprocating,,,,,2,IMC,CRUISE,N444JH,Business
546,20070703X00867,03/31/2007,"McCall, ID",United States,44.888889,-116.101944,KMYL,Non-Fatal,Substantial,,2,Turbo Prop,,7,,,,VMC,LANDING,N46SA,Business
547,20070329X00344,03/25/2007,"Laredo, TX",United States,,,,Non-Fatal,Substantial,,1,Reciprocating,,1,,,,VMC,MANEUVERING,N854WT,Business
548,20070411X00392,03/25/2007,"Augusta, GA",United States,33.368611,-81.958611,KAGS,Non-Fatal,Substantial,,2,Turbo Prop,,3,,,,VMC,CRUISE,N90NM,Business
549,20070223X00219,02/20/2007,"Phenix City, AL",United States,32.419445,-85.242222,,Non-Fatal,Substantial,,2,Reciprocating,,,,1,,VMC,CRUISE,N41077,Business
550,20070222X00212,02/16/2007,"Council Bluffs, IA",United States,41.200278,-95.733889,CBF,Fatal(4),Destroyed,,2,Reciprocating,,,,,4,IMC,APPROACH,N111SC,Business
551,20070314X00293,02/13/2007,"Banning, CA",United States,34.083333,-116.766667,,Incident,,,1,Reciprocating,,1,,,,VMC,CRUISE,N194LF,Business
552,20070328X00342,02/06/2007,"Vicksburg, MS",United States,32.454722,-90.972778,KTVR,Non-Fatal,Substantial,Helicopter,1,Turbo Shaft,,2,,,,VMC,CRUISE,N451DL,Business
553,20070208X00156,02/02/2007,"Cape Girardeau, MO",United States,37.225278,-89.573611,CGI,Non-Fatal,Substantial,Airplane,2,Turbo Prop,,2,,,,VMC,CRUISE,N777AJ,Business
554,20070208X00157,02/01/2007,"Dickinson, ND",United States,46.797222,-102.801944,DIK,Non-Fatal,Substantial,,2,Reciprocating,,1,,,,VMC,APPROACH,N6631C,Business
555,20070215X00197,01/31/2007,"Atlantic City, NJ",United States,39.454444,-74.572778,ACY,Non-Fatal,Substantial,,2,Reciprocating,,1,,,,VMC,APPROACH,N20SS,Business
556,20070221X00201,01/21/2007,"Craig, CO",United States,40.491389,-107.525278,CAG,Non-Fatal,Substantial,Airplane,2,Reciprocating,,1,,,,VMC,LANDING,N88JE,Business
557,20070130X00114,01/04/2007,"Buckley, WA",United States,47.150000,-122.000000,,Non-Fatal,Substantial,Airplane,1,Reciprocating,,1,,,,VMC,LANDING,N186AC,Business
558,20070111X00040,01/04/2007,"Columbia, SC",United States,33.947222,-81.156389,KCAE,Fatal(3),Destroyed,,1,Reciprocating,,,,,3,IMC,APPROACH,N55YS,Business
559,20070109X00030,01/02/2007,"Tulsa, OK",United States,36.038333,-95.984444,KRVS,Non-Fatal,Substantial,,2,Turbo Prop,,9,,,,VMC,LANDING,YV-2045,Business
560,20061227X01847,12/19/2006,"Austin, TX",United States,30.424723,-97.675278,,Fatal(1),Destroyed,,1,Reciprocating,,,,,1,IMC,APPROACH,N5434C,Business
561,20061226X01844,12/18/2006,"Fayetteville, AR",United States,35.946111,-94.163056,FYV,Fatal(1),Destroyed,,1,Reciprocating,,,,3,1,IMC,APPROACH,N1100J,Business
562,20070103X00003,12/13/2006,"Waterloo, IA",United States,42.556667,-92.400000,ALO,Non-Fatal,Substantial,,2,Turbo Prop,,3,,,,VMC,LANDING,N20DL,Business
563,20061218X01801,12/10/2006,"Waco, TX",United States,31.610000,-97.230000,KACT,Fatal(3),Destroyed,,2,Reciprocating,,,,,3,IMC,APPROACH,N69677,Business
564,20061221X01834,12/05/2006,"Menominee, MI",United States,45.126389,-87.638333,MNM,Non-Fatal,Substantial,Airplane,2,Turbo Prop,,2,,,,VMC,TAXI,N425JP,Business
565,20061214X01788,11/29/2006,"Mindelheim, Germany",Germany,,,,Fatal(1),Destroyed,,,,,,,,1,VMC,,,Business
566,20070221X00204,11/18/2006,"Fort Wayne, IN",United States,41.143333,-85.154444,SMD,Incident,Minor,,1,Turbo Prop,,1,,,,VMC,LANDING,N4185L,Business
567,20061117X01687,11/13/2006,"Melrose, NM",United States,34.604722,-103.601111,,Non-Fatal,Substantial,,1,Turbo Shaft,,,1,1,,VMC,CRUISE,N24CF,Business
568,20061221X01822,11/03/2006,"Antioquia, Colombia",Colombia,6.255556,-75.202222,,Fatal(1),Destroyed,,,,,,,,1,VMC,,,Business
569,20061107X01619,11/03/2006,"Chester, IL",United States,37.920000,-89.734722,,Non-Fatal,Substantial,,1,Reciprocating,,1,,,,VMC,CRUISE,N460TM,Business
570,20061121X01697,10/16/2006,"Monticello, UT",United States,38.091111,-109.089445,,Non-Fatal,Substantial,Helicopter,1,Reciprocating,,1,,,,VMC,CRUISE,N224VR,Business
571,20061114X01668,10/05/2006,"Spokane, WA",United States,47.619723,-117.533889,GEG,Non-Fatal,Substantial,Airplane,1,Reciprocating,,1,,,,VMC,LANDING,N134GW,Business
572,20060927X01409,09/22/2006,"N. Sioux City, SD",United States,42.518611,-96.493055,,Fatal(1),Substantial,,2,Reciprocating,,,,,1,VMC,CRUISE,N4JV,Business
573,20061004X01446,09/18/2006,"Koliganek, AK",United States,60.303611,-156.899444,,Non-Fatal,Substantial,Airplane,1,Reciprocating,,2,,,,VMC,MANEUVERING,N82905,Business
574,20060925X01387,09/15/2006,"Maybell, CO",United States,40.984444,-108.800000,,Fatal(2),Destroyed,,1,Reciprocating,,,,,2,VMC,CRUISE,N787SL,Business
575,20070611X00708,09/13/2006,"Novokuznetsk, Russia",Russia,53.750000,87.200000,,Fatal(3),Destroyed,,,,NSCH,,,1,3,VMC,,NONE,Business
576,20061017X01527,09/06/2006,"Cedar Rapids, IA",United States,41.884722,-91.710833,,Non-Fatal,Substantial,Airplane,1,Reciprocating,,3,,,,VMC,CLIMB,N2430A,Business
577,20060828X01245,08/11/2006,"Puerto Ayacucho, Venezuela",Venezuela,5.600000,-67.600000,,Fatal(2),Destroyed,,,,,,,,2,VMC,,,Business
578,20060817X01207,08/11/2006,"Saipan, Northern Mariana Islands",Northern Mariana Islands,15.123611,145.747500,GSN,Non-Fatal,Destroyed,,1,Reciprocating,,,,7,,VMC,TAKEOFF,N4509T,Business
579,20061004X01457,08/09/2006,"Orlando, FL",United States,28.553333,-81.343889,,Non-Fatal,Substantial,Helicopter,1,Turbo Shaft,,5,,,,VMC,CRUISE,N121RH,Business
580,20060929X01434,08/09/2006,"Coldfoot, AK",United States,67.253611,-150.206389,,Non-Fatal,Substantial,Airplane,1,Reciprocating,,1,1,,,VMC,LANDING,N7663H,Business
581,20060810X01143,08/07/2006,"Salida, CO",United States,38.616667,-106.300000,,Fatal(1),Substantial,,1,Reciprocating,,,,1,1,VMC,MANEUVERING,N6506C,Business
582,20060809X01120,07/29/2006,"Riceboro, GA",United States,31.735277,-81.440277,,Non-Fatal,Substantial,Airplane,1,Turbo Prop,,6,,,,VMC,TAKEOFF,N415GA,Business
583,20060906X01307,07/25/2006,"Palatka, FL",United States,29.533333,-81.713889,,Non-Fatal,Substantial,,1,Reciprocating,,,1,,,VMC,LANDING,N8896G,Business
584,20061003X01441,07/21/2006,"Rome, GA",United States,34.353333,-85.154722,RMG,Non-Fatal,Substantial,Airplane,1,Reciprocating,,,,3,,VMC,MANEUVERING,N5324R,Business
585,20060724X00990,07/19/2006,"Amarillo, TX",United States,35.058889,-101.874167,,Fatal(1),Destroyed,,1,Reciprocating,,,,1,1,VMC,CRUISE,N732TZ,Business
586,20060724X00999,07/18/2006,"Jeanerette, LA",United States,29.902778,-91.656667,2R1,Fatal(3),Destroyed,,2,Reciprocating,,,,,3,IMC,LANDING,N158LW,Business
587,20060802X01070,07/17/2006,"Greenville, SC",United States,34.847777,-82.350000,GMU,Incident,,,3,Turbo Fan,,5,,,,VMC,LANDING,N699BG,Business
588,20060705X00868,06/30/2006,"Walford, IA",United States,41.875556,-91.852222,,Fatal(1),Destroyed,,1,Turbo Shaft,,,,2,1,VMC,MANEUVERING,N2877F,Business
589,20060623X00807,06/14/2006,"North Garden, VA",United States,37.962222,-78.670556,VA18,Fatal(2),Destroyed,,1,Reciprocating,,,,,2,,APPROACH,N202EN,Business
590,20060616X00749,06/08/2006,"Provo, UT",United States,40.234444,-111.758889,PVU,Fatal(3),Destroyed,,1,Turbo Prop,,,,,3,VMC,APPROACH,N95CE,Business
591,20060726X01023,06/02/2006,"Stanley, ID",United States,44.213611,-114.933056,2U7,Non-Fatal,Substantial,Airplane,1,Reciprocating,,1,,,,VMC,TAKEOFF,N7537N,Business
592,20060720X00971,05/30/2006,"Hagerstown, MD",United States,39.708056,-77.729445,HGR,Non-Fatal,Substantial,,1,Reciprocating,,2,,,,VMC,TAKEOFF,N369AS,Business
593,20060706X00880,05/30/2006,"Leesburg, VA",United States,39.078056,-77.557500,,Non-Fatal,Substantial,Airplane,1,Reciprocating,,1,1,,,VMC,TAKEOFF,N460CT,Business
594,20060623X00808,05/16/2006,"Murfreesboro, TN",United States,35.880556,-86.380556,KMBT,Non-Fatal,Substantial,Airplane,2,Turbo Fan,,7,,,,VMC,LANDING,N545TG,Business
595,20060523X00612,05/13/2006,"East Troy, WI",United States,42.797222,-88.372500,57C,Non-Fatal,Substantial,,1,Reciprocating,,,1,4,,VMC,TAKEOFF,N442GS,Business
596,20060518X00586,05/12/2006,"Del Norte, CO",United States,27.713611,-106.354444,8V1,Non-Fatal,Substantial,,1,Reciprocating,,4,,,,VMC,LANDING,N41827,Business
597,20060612X00730,05/11/2006,"Dongola, IL",United States,37.425000,-89.036666,,Non-Fatal,Substantial,Airplane,2,Reciprocating,,3,,,,VMC,LANDING,N8585Y,Business
598,20060516X00574,05/10/2006,"Camp Hill, AL",United States,32.760000,-85.693055,,Fatal(2),Destroyed,,2,Reciprocating,,,,,2,IMC,MANEUVERING,N68999,Business
599,20060621X00786,05/10/2006,"Iliamna, AK",United States,55.359167,-154.117223,,Non-Fatal,Substantial,Airplane,1,Reciprocating,,2,,,,VMC,APPROACH,N723C,Business
600,20060601X00661,05/07/2006,"Cody, WY",United States,44.520000,-109.023611,,Non-Fatal,Substantial,Airplane,1,Reciprocating,,1,,,,VMC,LANDING,N6083A,Business
601,20060627X00832,05/02/2006,"Rocky Point, NC",United States,34.445277,-77.881389,,Non-Fatal,Substantial,Helicopter,1,Reciprocating,,1,,,,VMC,CRUISE,N288RH,Business
602,20060516X00582,05/01/2006,"Vinita, OK",United States,36.633056,-95.151389,,Non-Fatal,Substantial,Helicopter,1,Turbo Shaft,,4,,,,VMC,APPROACH,N342WC,Business
603,20060601X00667,04/25/2006,"Brook, IN",United States,40.865556,-87.352778,,Non-Fatal,Substantial,Helicopter,1,Reciprocating,,1,,,,VMC,STANDING,N7197K,Business
604,20060428X00490,04/17/2006,"Heber City, UT",United States,40.473056,-111.135277,,Fatal(1),Destroyed,,2,Reciprocating,,,,,1,IMC,CRUISE,N289WB,Business
605,20060407X00406,03/28/2006,"Oak Glen, CA",United States,34.044444,-116.899722,,Fatal(2),Destroyed,,1,Turbo Prop,,,,,2,IMC,CLIMB,N208WE,Business
606,20060328X00356,03/23/2006,"Melbourne, FL",United States,28.102778,-80.689722,KMLB,Fatal(3),Destroyed,,2,Reciprocating,,,,,3,VMC,APPROACH,N37JB,Business
607,20060404X00392,03/21/2006,"Zama City, Canada",Canada,,,,Fatal(1),Destroyed,,,,,,,,1,VMC,,,Business
608,20060412X00427,03/15/2006,"Peetz, CO",United States,40.935277,-103.363611,,Non-Fatal,Substantial,Helicopter,1,Reciprocating,,2,,,,VMC,MANEUVERING,N811Z,Business
609,20060315X00308,03/03/2006,"Teterboro, NJ",United States,40.846389,-74.071389,TEB,Incident,Minor,,3,Turbo Fan,,3,,,,VMC,LANDING,N973M,Business
610,20060308X00276,03/01/2006,"Manhattan, KS",United States,39.141111,-96.670834,MHK,Non-Fatal,Substantial,,1,Reciprocating,,2,,,,VMC,TAKEOFF,N7824T,Business
611,20060213X00195,02/09/2006,"Aspen, CO",United States,39.223334,-106.868334,ASE,Non-Fatal,Substantial,,2,Turbo Fan,,3,,,,VMC,LANDING,N900LG,Business
612,20060816X01178,01/25/2006,"Carson, WA",United States,45.870834,-122.046111,,Fatal(1),Destroyed,,2,Reciprocating,,,,,1,IMC,MANEUVERING,N69KM,Business
613,20060131X00141,01/24/2006,"Mariposa, CA",United States,37.328889,-120.057778,MPI,Non-Fatal,Substantial,,1,Reciprocating,,1,1,,,IMC,CRUISE,N4791C,Business
614,20060118X00086,01/13/2006,"Childersburg, AL",United States,33.184722,-86.367223,,Non-Fatal,Substantial,,1,Reciprocating,,3,,,,VMC,CLIMB,N87HK,Business
615,20060113X00071,01/04/2006,"Worthington, MN",United States,43.655000,-95.579167,OTG,Non-Fatal,Substantial,,1,Reciprocating,,1,,,,IMC,LANDING,N190PH,Business
616,20051223X02011,11/25/2005,"Rancho Santa Fe, CA",United States,32.988055,-117.205556,,Non-Fatal,Substantial,Balloon,0,,,12,,,,VMC,LANDING,N4506B,Business
617,20051123X01879,11/21/2005,"Hillsboro, OR",United States,45.540277,-122.949722,HIO,Incident,Minor,,2,Turbo Fan,,7,,,,VMC,TAKEOFF,N225GV,Business
618,20051227X02015,11/18/2005,"Palo Alto, CA",United States,37.461111,-122.115000,PAO,Non-Fatal,Substantial,Airplane,1,Reciprocating,,4,,,,VMC,LANDING,N6122A,Business
619,20051117X01852,11/15/2005,"Rock Springs, WY",United States,41.595000,-109.065000,RKS,Non-Fatal,Substantial,,1,Reciprocating,,1,,,,VMC,DESCENT,N2870Q,Business
620,20051123X01884,11/09/2005,"Geyserville, CA",United States,38.738889,-122.818334,STS,Fatal(1),Destroyed,,1,Reciprocating,,,,,1,VMC,DESCENT,N9204Q,Business
621,20051128X01895,11/07/2005,"Greer, SC",United States,34.885833,-82.217500,,Non-Fatal,Substantial,Airplane,2,Reciprocating,,,2,,,VMC,APPROACH,N3873X,Business
622,20060111X00053,11/02/2005,"El Marques, Mexico",Mexico,,,,Fatal(2),Destroyed,,,,,,,,2,,,,Business
623,20051027X01745,10/22/2005,"Steamboat Spgns, CO",United States,40.350556,-106.684166,,Fatal(2),Destroyed,,1,Reciprocating,,,,,2,VMC,DESCENT,N101HK,Business
624,20051012X01621,10/08/2005,"Monterey, TN",United States,35.952222,-85.086111,,Fatal(1),Substantial,,1,Reciprocating,,,,,1,IMC,CRUISE,N4994V,Business
625,20051003X01564,09/24/2005,"Drummond, WI",United States,,,,Fatal(3),Substantial,,1,Reciprocating,,,,,3,VMC,UNKNOWN,N9158U,Business
626,20051003X01562,09/22/2005,"Columbus, OH",United States,40.079723,-83.072778,OSU,Non-Fatal,Substantial,,2,Turbo Shaft,,5,,,,VMC,LANDING,N117MK,Business
627,20051013X01644,09/16/2005,"Emerson, NE",United States,42.322778,-96.681111,,Non-Fatal,Substantial,Airplane,1,Reciprocating,,1,,,,VMC,CRUISE,N8225F,Business
628,20051019X01685,09/14/2005,"Rockland, ME",United States,44.060000,-69.099166,RKD,Non-Fatal,Substantial,,2,Turbo Fan,,2,,,,IMC,LANDING,N701DF,Business
629,20051109X01813,09/03/2005,"McGrath, AK",United States,62.083333,-154.666667,,Non-Fatal,Substantial,Airplane,1,Reciprocating,,1,,,,VMC,LANDING,N4707U,Business
630,20051013X01646,09/01/2005,"Myrtle Grove, LA",United States,29.984444,-89.993611,,Non-Fatal,Substantial,,1,Turbo Shaft,,,4,,,VMC,MANEUVERING,N59539,Business
631,20050902X01378,08/22/2005,"Aleknagik, AK",United States,59.423334,-159.813333,,Non-Fatal,Substantial,,1,Reciprocating,,6,1,,,VMC,TAKEOFF,N5333G,Business
632,20050831X01344,08/17/2005,"Jamestown, TN",United States,36.336666,-85.049444,SME,Fatal(2),Destroyed,,1,Reciprocating,,,,,2,VMC,CRUISE,N1824W,Business
